{"Provinces":[{"Name":"安徽","Cities":[{"Name":"安庆","Stores":[{"Name":"AQ迎江新百","Address":"安徽省安庆迎江区人民 路416号一楼","Longitude":117.0525122349,"Latitude":30.5107629429}]},{"Name":"蚌埠","Stores":[{"Name":"蚌山百惠广场","Address":"安徽省蚌埠淮河路945号 百惠一层","Longitude":117.3709481205,"Latitude":32.9516632466}]},{"Name":"阜阳","Stores":[{"Name":"FY颖泉阜阳百货","Address":"阜阳颖泉区人民东路2 号阜阳百货大楼一楼","Longitude":115.8206398154,"Latitude":32.8963553213}]},{"Name":"合肥","Stores":[{"Name":"庐阳水明月","Address":"合肥庐阳区淮河路新安 商城地下一层","Longitude":117.2966801538,"Latitude":31.8700747301},{"Name":"合肥长江家乐福","Address":"长江西路41号 国购广场首层","Longitude":117.2704773076,"Latitude":31.8634708795},{"Name":"乐普生商场店","Address":"合肥美菱大道618号 绿都商城B区1楼","Longitude":117.2943412675,"Latitude":31.8697148055},{"Name":"HF包河万达广场","Address":"安徽合肥马鞍山路130号 万达广场二层","Longitude":117.3105615269,"Latitude":31.8638916695}]},{"Name":"淮北","Stores":[{"Name":"相山鼎盛国际","Address":"淮北淮海路159号鼎 盛国际购物中心一楼","Longitude":116.8001271075,"Latitude":33.9784844119}]},{"Name":"淮南","Stores":[{"Name":"淮南新百","Address":"安徽省淮南市田家庵区 龙湖中路1号新百一层","Longitude":117.023992,"Latitude":32.647477}]},{"Name":"马鞍山","Stores":[{"Name":"MAS大华国际","Address":"马鞍山花山区湖东路大 华国际广场3栋一层","Longitude":118.5163887744,"Latitude":31.6887399174}]},{"Name":"宿州","Stores":[{"Name":"SZ?桥家乐福","Address":"宿州埇桥区卞河中路399 号家乐福世纪广场首层","Longitude":116.9912681599,"Latitude":33.6378773339}]},{"Name":"芜湖","Stores":[{"Name":"芜湖华亿","Address":"安徽芜湖市镜湖区中山 路步行街18号首层","Longitude":118.3765735014,"Latitude":31.3357786378}]}]},{"Name":"北京","Cities":[{"Name":"北京","Stores":[{"Name":"富力广场","Address":"朝阳区东三环中路富力 广场103号铺位一、二层","Longitude":116.467468435,"Latitude":39.8993339293},{"Name":"北京回龙观","Address":"北京昌平区回龙观西大 街111号华联商厦一层","Longitude":116.3262703028,"Latitude":40.0818282044},{"Name":"北京华威店","Address":"北京市西单北大街 北京华威大厦三层","Longitude":116.3812754478,"Latitude":39.9171319805},{"Name":"新中关","Address":"海淀区中关村大街19号 新中关国际中心负2层","Longitude":116.3226339679,"Latitude":39.9841449177},{"Name":"北京龙德广场","Address":"昌平区立汤路186号龙德 广场首层屈臣氏店铺","Longitude":116.4220110132,"Latitude":40.0632359262},{"Name":"世纪金源","Address":"北京市海淀区远大路 1号世纪金源首层","Longitude":116.3018351848,"Latitude":39.9650075162},{"Name":"BJ新世界千姿","Address":"北京市顺义区新顺南大 街18号首层","Longitude":116.6590017632,"Latitude":40.1321706577},{"Name":"北京五道口（华联）","Address":"海淀区成府路28号北 京五道口购物中心B2","Longitude":116.3455929324,"Latitude":39.9979782728},{"Name":"北京石景山万达","Address":"北京石景山区石景山路 万达广场一层","Longitude":116.2329729272,"Latitude":39.9115199262},{"Name":"北京新三里屯","Address":"朝阳区三里屯路19号院 地下商业17,18号商铺","Longitude":116.4620070697,"Latitude":39.9456668883},{"Name":"BJ昌平阳光","Address":"北京市昌平区府学路 29号一层","Longitude":116.2510220342,"Latitude":40.2270819529},{"Name":"北京通州阳光","Address":"北京通州区瑞都景园北 区1A号楼商业首层","Longitude":116.6629217572,"Latitude":39.8959311553},{"Name":"东方银座","Address":"北京市东城区东直门外 大街48号B2层06号商铺","Longitude":116.442934846,"Latitude":39.9462702542},{"Name":"北京西环","Address":"北京市西城区西直门外 大街1号西环广场嘉茂","Longitude":116.3586060192,"Latitude":39.9483989881},{"Name":"西单店","Address":"北京市西城区 西单文化广场地下1层","Longitude":116.3814547334,"Latitude":39.9145663313},{"Name":"北京大庆","Address":"北京市黄村镇兴丰大街 北京星城商厦首层","Longitude":116.3459998741,"Latitude":39.7455063449},{"Name":"北京顺义","Address":"北京市顺义区光明南街 10号","Longitude":116.6639793255,"Latitude":40.1312389662},{"Name":"望京嘉茂","Address":"北京顺北大街33号 望京嘉茂购物中心地下","Longitude":116.4745046357,"Latitude":40.0014559005},{"Name":"BJ东方广场","Address":"北京市东长安街1号东 方新天地商场地铁层","Longitude":116.4241608137,"Latitude":39.9146973434},{"Name":"北京中关村店(华宇）","Address":"北京市海淀区 中关村南大街2号","Longitude":116.330173514,"Latitude":39.9714672623},{"Name":"北京莱福士","Address":"北京市东城区东直门南 大街1号","Longitude":116.4402697199,"Latitude":39.9420203362},{"Name":"BJ朝北大悦城","Address":"北京朝阳区朝阳北路101 号地下一层","Longitude":116.5270433062,"Latitude":39.9299319493},{"Name":"BJ分钟寺","Address":"北京市丰台区南三环东 路成寿命寺2号二层","Longitude":116.4454973998,"Latitude":39.8647642512},{"Name":"五道口店","Address":"北京市中关村东路 8号东升大厦首层","Longitude":116.340792402,"Latitude":39.9996887067},{"Name":"北京白广路","Address":"北京市宣武区广安门内 大街202号","Longitude":116.3691644853,"Latitude":39.894823179},{"Name":"新世界商场","Address":"北京崇文区崇外大街5 号新世界商场青春馆B1","Longitude":116.4246770677,"Latitude":39.9046041915},{"Name":"北京华贸","Address":"建国路79\\81号北京华贸 购物中心一层B130号单","Longitude":116.4864924651,"Latitude":39.9150597425},{"Name":"北京金四季","Address":"北京市海淀区四季青桥 金四季购物中心首层","Longitude":116.2771180056,"Latitude":39.9518102213},{"Name":"平谷国泰","Address":"北京市平谷区文化北街 9号首层","Longitude":117.1179120733,"Latitude":40.1486229296},{"Name":"BJ悠唐生活广场","Address":"北京市朝阳区三丰北里 2号楼","Longitude":116.4465943468,"Latitude":39.9248976},{"Name":"BJ亦庄创意生活","Address":"北京市经济技术开发区 文化园东路6号首层","Longitude":116.51182356,"Latitude":39.8171898118},{"Name":"朝阳园","Address":"北京园尚街商业中心 北京市甘露园南里25号","Longitude":116.5205604193,"Latitude":39.9185788469},{"Name":"北京国瑞购物中心","Address":"北京市崇文区崇外大街 18号","Longitude":116.4253888196,"Latitude":39.8949707057},{"Name":"BJ大红门银泰","Address":"丰台区大红门西路26号 11#商业楼地下","Longitude":116.4006156736,"Latitude":39.8448542122},{"Name":"良乡国泰","Address":"北京市房山区良乡拱辰 南大街6号首层","Longitude":116.148770858,"Latitude":39.7364268091},{"Name":"旺角购物广场","Address":"北京朝阳望京新兴 产业区35号旺角广场1层","Longitude":116.4730323269,"Latitude":40.0028429303},{"Name":"北京西点百货","Address":"北京市海淀区永定路 88号西点百货首层","Longitude":116.2716548145,"Latitude":39.9110737128},{"Name":"北京望京方恒中心","Address":"望京阜通大街望京新城 B区方恒国际中心首层","Longitude":116.48202411,"Latitude":40.0032414693},{"Name":"BJ物美圣熙8号","Address":"北京海淀学清路甲8号 圣熙八号购物中心一层","Longitude":116.3601067761,"Latitude":40.0146064987},{"Name":"BJ公益西桥华联","Address":"北京丰台城南嘉园公益 西桥北京华联购物中心","Longitude":116.3764872003,"Latitude":39.8400174673},{"Name":"北京城乡华懋","Address":"海淀区复兴路甲23号 北京城乡华懋商厦B1/F","Longitude":116.3145561281,"Latitude":39.9148418848},{"Name":"北京Solana","Address":"北京朝阳公园6号负一 层","Longitude":116.4828892979,"Latitude":39.9559317581},{"Name":"BJ新东安","Address":"王府井新东安地下一层 B103-B107铺","Longitude":116.4175984513,"Latitude":39.9213925742},{"Name":"BJ通州贵友大厦","Address":"北京市通州区云景东路 1号二层","Longitude":116.6735106678,"Latitude":39.8904007822},{"Name":"BJ邻枫路","Address":"北京丰台区邻枫路1号","Longitude":116.2950724131,"Latitude":39.8423442179},{"Name":"北京安贞华联","Address":"北京市朝阳区 安贞西里五区四号楼","Longitude":116.4076886251,"Latitude":39.9770154411},{"Name":"BJ凯德太阳宫","Address":"北京市朝阳区太阳宫 乡太阳宫凯德地下一层","Longitude":116.4538477174,"Latitude":39.9775345249},{"Name":"北京今日家园","Address":"北京市海淀区西翠路 五号今日家园9#","Longitude":116.2876260221,"Latitude":39.9077018336},{"Name":"北苑世代百货","Address":"北苑家园秋实街1号易 事达购物休闲广场首层","Longitude":116.4286098995,"Latitude":40.0484951059},{"Name":"北京万源店","Address":"北京丰台区东高地航天 万源购物中心地下一层","Longitude":116.4298528872,"Latitude":39.8079230734},{"Name":"BJ华联万柳","Address":"北京海淀区巴沟路北京 华联万柳购物中心B1","Longitude":116.3010336877,"Latitude":39.9798852662},{"Name":"BJ丰联广场","Address":"北京朝阳区朝阳门外大 街18号丰联广场B1","Longitude":116.4454273468,"Latitude":39.9298806},{"Name":"BJ大钟寺家乐福","Address":"北京市海淀区东升乡大 钟寺地下一层","Longitude":116.3460457011,"Latitude":39.9717616915},{"Name":"富卓大厦","Address":"北京市宣武区宣武门外 大街32号富卓商厦首层","Longitude":116.3810479096,"Latitude":39.900760309},{"Name":"BJ首地大峡谷","Address":"北京市丰台区南三环西 路首地大峡谷二层","Longitude":116.3744348307,"Latitude":39.8612524788}]}]},{"Name":"福建","Cities":[{"Name":"福州","Stores":[{"Name":"FZ宝龙城市广场","Address":"福州台江区工业路193号 负一楼","Longitude":119.299505667,"Latitude":26.0660162418},{"Name":"福州大洋百货","Address":"福州市817北路133号 国际商厦负1层B1F-A7号","Longitude":119.3383636078,"Latitude":26.0835125228},{"Name":"FZ福州萬達","Address":"福建省福州市台江区鳌 峰路金融街万达广场首","Longitude":119.3509967506,"Latitude":26.0592551136},{"Name":"FZ元洪城一期","Address":"福州市台江区台江路95 号二层","Longitude":119.322312056,"Latitude":26.0582251127},{"Name":"FZ仓山万达","Address":"福州省福州市仓山区浦 上大站衫万达广场二层","Longitude":119.2820837794,"Latitude":26.0425495406}]},{"Name":"龙岩","Stores":[{"Name":"LY龙岩都市新天","Address":"福建省龙岩市新罗区 九一北路7号首层","Longitude":117.037406358,"Latitude":25.1045712822}]},{"Name":"南平","Stores":[{"Name":"南平滨江中路","Address":"福建南平滨江中路 滨江中路","Longitude":118.1875972737,"Latitude":26.6415386156}]},{"Name":"莆田","Stores":[{"Name":"PT金鼎广场","Address":"福建省莆田市荔城文献 西路金鼎购物广场首层","Longitude":119.0252957903,"Latitude":25.4379421392}]},{"Name":"泉州","Stores":[{"Name":"SS德辉广场","Address":"福建泉州市石狮市八七 路德辉广场首层","Longitude":118.6572191013,"Latitude":24.7356813389},{"Name":"麦迪森广场","Address":"泉州市涂门街11号 迪森广场首层","Longitude":118.5953253688,"Latitude":24.9101860347},{"Name":"QZ新华都","Address":"福建泉州鲤城区东街2 号新华都购物广场首层","Longitude":118.5979016153,"Latitude":24.9181957173},{"Name":"晋江SM广场","Address":"福建省泉州市晋江福埔 SM城市广场一层1085-1088","Longitude":118.5642112266,"Latitude":24.786589858},{"Name":"QZ浦西万达","Address":"福建省泉州市丰泽区 宝洲路689号二层","Longitude":118.6061497013,"Latitude":24.8884712145}]},{"Name":"厦门","Stores":[{"Name":"城市广场铺","Address":"厦门市湖里区嘉禾路468号  SM城市广场首层","Longitude":118.1330905847,"Latitude":24.5075535943},{"Name":"厦门思明南路","Address":"厦门思明南路 厦门","Longitude":118.0942474104,"Latitude":24.4500344029},{"Name":"宏辉大厦香水城","Address":"厦门市中山路318号 宏辉大厦首层","Longitude":118.0892833132,"Latitude":24.4601484448},{"Name":"厦门瑞景商业广场","Address":"中国福建省厦门市莲前 东路288号瑞景广场一层","Longitude":118.1677498739,"Latitude":24.4808368085},{"Name":"厦门世贸","Address":"思明区厦禾路878-888号 世贸商城二期EF-1商铺","Longitude":118.119638561,"Latitude":24.4732811296},{"Name":"XM新华都","Address":"厦门市集美区乐海路23 号新华都中心首层","Longitude":118.1154909937,"Latitude":24.5917495073},{"Name":"夏门新世界","Address":"厦门市思明区明发商业 广场新世界百货首层G/F","Longitude":118.1284113522,"Latitude":24.483147423}]},{"Name":"漳州","Stores":[{"Name":"嘉信茂丹霞","Address":"福建漳州嘉信茂广场 G/F34A,35-38店面","Longitude":117.678900027,"Latitude":24.515922907}]}]},{"Name":"甘肃","Cities":[{"Name":"兰州","Stores":[{"Name":"兰州新世界","Address":"城关区张掖路87号 兰州新世界商场首层","Longitude":103.8316725841,"Latitude":36.0649672743},{"Name":"兰州西单店","Address":"兰州市城关区临夏路5号 西单商场百货有限公司","Longitude":103.8229608181,"Latitude":36.064909384},{"Name":"瑞德摩尔","Address":"兰州市城关区东岗东路 1681号一层","Longitude":103.8840999704,"Latitude":36.0493508731},{"Name":"兰州华联商厦店","Address":"兰州市城关区南昌路 华联商厦","Longitude":103.8531778633,"Latitude":36.0616408245},{"Name":"LZ雁滩华孚泰","Address":"兰州市城关区雁滩路 3113号","Longitude":103.8770594096,"Latitude":36.0658478997}]},{"Name":"天水","Stores":[{"Name":"TS秦州三兴购物","Address":"甘肃省天水市秦州区青 年南路三兴购物中心","Longitude":105.7318511408,"Latitude":34.585449304}]}]},{"Name":"广东","Cities":[{"Name":"东莞","Stores":[{"Name":"DG塘厦花园街","Address":"东莞市塘厦镇花园街 8号","Longitude":114.1052986355,"Latitude":22.8257144448},{"Name":"DG常平迈亨名店","Address":"东莞市常平镇市场路侨 立广场","Longitude":114.0013799493,"Latitude":22.9801834005},{"Name":"虎门天河城","Address":"东莞市虎门镇太沙路 64号虎门天河城首层","Longitude":113.6798686697,"Latitude":22.8169119701},{"Name":"文化广场","Address":"东莞市西城文化广场 /","Longitude":114.0792319537,"Latitude":22.9118227841},{"Name":"东莞明丰广场","Address":"厚街镇康乐南路23号 明丰广场1层F02商铺","Longitude":113.6727249028,"Latitude":22.939335007},{"Name":"东莞世博","Address":"东莞市东城大道 世博广场B区首层","Longitude":113.7745178085,"Latitude":23.0263564932},{"Name":"东莞长安","Address":"东莞长安镇常青路 常青商业广场A01商铺","Longitude":113.8068289622,"Latitude":22.8274996734},{"Name":"东莞时代广场","Address":"东莞石龙新桥路时代 广场首层A01铺","Longitude":113.8613520352,"Latitude":23.1151550092},{"Name":"东莞长安地王广场","Address":"东莞长安镇长青南路303 号长安地王广场首层","Longitude":113.8074923409,"Latitude":22.8174118456},{"Name":"DG厚街文化中心","Address":"东莞市厚街镇康乐北路 厚街文化中心","Longitude":113.6775884203,"Latitude":22.9477688441},{"Name":"东莞太平店","Address":"东莞市虎门镇 沙太路76号","Longitude":113.3442948977,"Latitude":23.1958252489}]},{"Name":"佛山","Stores":[{"Name":"百花广场店","Address":"广东省佛山市 禅城区祖庙路33号","Longitude":113.1182206003,"Latitude":23.0319433685},{"Name":"顺德天佑城","Address":"佛山市红星桂洲大道中 天佑城首层B02号","Longitude":113.2778741337,"Latitude":22.7678700042},{"Name":"三水广场","Address":"佛山市三水区张边路 三水广场B座首层","Longitude":112.9007811241,"Latitude":23.1776667545},{"Name":"季华店","Address":"佛山市季华五路26号 世纪广场首层F5号铺","Longitude":113.1249166411,"Latitude":23.0176508324},{"Name":"大良","Address":"广东省顺德市大良镇 凤山中路26号","Longitude":113.2589398955,"Latitude":22.8438633319},{"Name":"佛山东方广场　","Address":"佛山市锦华路85号 东方广场明珠城首层","Longitude":113.1281969535,"Latitude":23.0429436361},{"Name":"顺德顺联广场","Address":"顺德区陈村镇佛陈路 顺德广场首层","Longitude":113.2073763828,"Latitude":22.9700816622},{"Name":"佛山加洲广场","Address":"佛山市南海区广佛一路 98号嘉洲广场首层","Longitude":113.1497520381,"Latitude":23.0351390587},{"Name":"佛山高明物业广场","Address":"佛山市高明区文昌路 219号物业广场","Longitude":112.892540974,"Latitude":22.9024024327},{"Name":"南海巴黎春天","Address":"佛山南海大沥城南二路 大沥商业步行街南区","Longitude":113.1202033007,"Latitude":23.1096834302}]},{"Name":"广州","Stores":[{"Name":"广州东急天地","Address":"广州市荔湾区下九路 东急新天地购物中心","Longitude":113.254706118,"Latitude":23.1207028514},{"Name":"广州又一城","Address":"广州天河区体育西路55号","Longitude":113.3275093046,"Latitude":23.1366513264},{"Name":"番禺桥东","Address":"广州番禺市桥桥东路 10-14号首层","Longitude":113.3751111896,"Latitude":22.9434820604},{"Name":"愉园酒店","Address":"广州市番禺区 市桥大北路123首层","Longitude":113.3724054896,"Latitude":22.9489462604},{"Name":"中华广场","Address":"广州中山三路33号中华 广场负1层A5","Longitude":113.2889227113,"Latitude":23.1320130852},{"Name":"天河娱乐广场店","Address":"广州市天河路天河娱乐 广场首层","Longitude":113.346573655,"Latitude":23.1411030815},{"Name":"番禺番山","Address":"广州市番禺区繁华路 9号之2首层","Longitude":113.371379855,"Latitude":22.9475370003},{"Name":"花都建设路店","Address":"广州花都区新华街建设 路17号首层之1","Longitude":113.2166712256,"Latitude":23.3804008897},{"Name":"恒宝广场店","Address":"广州市宝华路133号 负1层0185号商铺","Longitude":113.2481268074,"Latitude":23.1227588315},{"Name":"新市好又多","Address":"广州市白云区机场路111 1号","Longitude":113.2669706791,"Latitude":23.1959518184},{"Name":"正佳广场","Address":"广州市天河路228号正佳 广场二层2C076-081号铺","Longitude":113.3290593046,"Latitude":23.1384563264},{"Name":"广州大道北","Address":"广州大道北1811/1813 号嘉峪太阳城广场首层","Longitude":113.3341488351,"Latitude":23.1932489282},{"Name":"广州迎龙大道","Address":"广州市天河区迎龙大道 6号龙洞购物中心首层","Longitude":113.372894146,"Latitude":23.1993561123},{"Name":"增城挂绿店","Address":"增城市荔城镇挂绿路 6号挂绿广场首层","Longitude":113.84071247,"Latitude":23.2972308581},{"Name":"CH新世纪广场","Address":"广东广州从化市街口镇 东成路68号首层","Longitude":113.5952455906,"Latitude":23.5539944507},{"Name":"GZ广州天河城","Address":"广州市天河路208号4层 422-425商铺","Longitude":113.3284453046,"Latitude":23.1381173264},{"Name":"广州名盛","Address":"广州市越秀区北京路238 号首层","Longitude":113.2754609065,"Latitude":23.1293064032},{"Name":"GZ黄埔潮楼购物","Address":"广州黄埔区大沙西路311 号负一层","Longitude":113.4536804594,"Latitude":23.1069902599},{"Name":"GZ四季时尚荟","Address":"广州市天河区东圃镇东 圃大马路4号首层","Longitude":113.4092902367,"Latitude":23.12665625},{"Name":"宜安广场店","Address":"广州市建设六路马路 38号","Longitude":113.2916113749,"Latitude":23.1410135358},{"Name":"GZ广州丽影广场","Address":"广州海珠区新港中路 丽影广场首层","Longitude":113.3278682099,"Latitude":23.1015977027},{"Name":"中旅商店","Address":"广州市中山五路 中旅商业城首层","Longitude":113.2718830143,"Latitude":23.1317716389},{"Name":"江南西店","Address":"广州市海珠区 江南西路26号地下","Longitude":113.2788765485,"Latitude":23.1018766439},{"Name":"广百广场店","Address":"广州市北京路广百广场 二楼2-12号铺","Longitude":113.2743839666,"Latitude":23.1296781111},{"Name":"GZ广州白云万达","Address":"广州市白云区云城东路 509号万达广场二层205","Longitude":113.2852645612,"Latitude":23.1975230088},{"Name":"天河好又多","Address":"广州市中山大道好又多 商业广场首层","Longitude":113.4159043942,"Latitude":23.1260316662},{"Name":"万国广场店","Address":"广州市海珠区前进路 万国广场1楼夹层","Longitude":113.2829467977,"Latitude":23.107457599},{"Name":"富景店","Address":"广州市新港西路68号 富景花园百佳购物广场","Longitude":113.2967642074,"Latitude":23.098898038},{"Name":"署前路店","Address":"广州市署前一横路 1号首层","Longitude":113.2708762181,"Latitude":23.1354058329},{"Name":"广州荔景店","Address":"广州市中山八路10号 东峻荔景苑商城首层","Longitude":113.2471163871,"Latitude":23.1319119655},{"Name":"广州江南新地","Address":"广州市江南西路46号江 南新地E区28\\30\\31号铺","Longitude":113.2772321035,"Latitude":23.1012994031},{"Name":"GZ番禺大北路","Address":"广东广州番禺大北路 98-100首层","Longitude":113.3728134896,"Latitude":22.9454112604},{"Name":"广州奥园城市广场","Address":"番禺洛溪桥南广州奥园 城市广场首层1007-1011铺","Longitude":113.3132562906,"Latitude":23.0467929623},{"Name":"GZ天河直通车","Address":"广州天河体育西路54号 北段直通车商业广场-1F","Longitude":113.3283683046,"Latitude":23.1378853264},{"Name":"GZ广州风尚广百","Address":"广东省广州市越秀区 中山四路395号负一楼1-1","Longitude":113.2757512143,"Latitude":23.1319189389}]},{"Name":"河源","Stores":[{"Name":"中山路","Address":"河源市源城区中山路珠 河桥南侧翔丰商业广场","Longitude":114.7081194276,"Latitude":23.7452617429}]},{"Name":"惠州","Stores":[{"Name":"惠州世贸中心","Address":"惠州市南岸路1号 世急贸购物中心","Longitude":114.4244477038,"Latitude":23.0745144321},{"Name":"HY惠阳新一城","Address":"广东惠州市惠阳区淡水 南门中路47号","Longitude":114.4757659102,"Latitude":22.8000855576},{"Name":"家华花园","Address":"惠州市南新路30号 家华花园百佳购物广场","Longitude":114.4154895484,"Latitude":23.0860589472}]},{"Name":"江门","Stores":[{"Name":"江门地王广场","Address":"江门市胜利路28号地王 广场首层1018-1022铺","Longitude":113.0915483837,"Latitude":22.5832163722}]},{"Name":"茂名","Stores":[{"Name":"MM兴发购物广场","Address":"广东省茂名市电白县人 民路7号","Longitude":111.0120477109,"Latitude":21.5096505618}]},{"Name":"清远","Stores":[{"Name":"QY清远城市广场","Address":"清远市先锋路18号首层 部分","Longitude":113.0374192368,"Latitude":23.7132368487}]},{"Name":"汕头","Stores":[{"Name":"ST汕头府前庄","Address":"汕头市潮阳区文光街道 中华路104号府前庄二期","Longitude":116.6086703324,"Latitude":23.265049047},{"Name":"ST中旅卜蜂莲花","Address":"广东汕头市金平区汕樟 路41号卜蜂莲花商场","Longitude":116.7004000891,"Latitude":23.3692057616}]},{"Name":"汕尾","Stores":[{"Name":"HF红城大道","Address":"广东省汕尾市海丰县红 城大道西蓝天广场首层","Longitude":115.3292320253,"Latitude":22.9722585634}]},{"Name":"韶关","Stores":[{"Name":"韶关风度店","Address":"广东省韶关市浈江区熏 风路与解放路交汇处","Longitude":113.6075006561,"Latitude":24.8063280075}]},{"Name":"深圳","Stores":[{"Name":"南海中心","Address":"深圳市东门中路23号 南海中心商场101号","Longitude":114.1281606882,"Latitude":22.5546202293},{"Name":"SZ东门町广场","Address":"深圳市罗湖区永新街东 门町广场首层","Longitude":114.1251295369,"Latitude":22.5503610881},{"Name":"星港城","Address":"宝安区松岗街道办集信 商业广场首层A11号商铺","Longitude":113.8551039267,"Latitude":22.7704802083},{"Name":"SZ深圳盛妆百货","Address":"深圳市宝安区石岩街道 浪心社区宝石南路119号","Longitude":113.9378676531,"Latitude":22.6826893316},{"Name":"SZ东门鸿展广场","Address":"广东省深圳市罗湖区 解放路鸿展广场101号铺","Longitude":114.1185829341,"Latitude":22.5502587699},{"Name":"深南大道","Address":"深圳福田深南大道车公 庙段丰盛町步行街负二","Longitude":114.0314459997,"Latitude":22.5417699876},{"Name":"深圳新世界","Address":"深圳市福田区 梅华路新世界","Longitude":114.0598646635,"Latitude":22.5702562953},{"Name":"深圳福民花园店","Address":"深圳福民路 福民家园负1层","Longitude":114.0718696541,"Latitude":22.5276606048},{"Name":"华强北","Address":"广东省深圳市福田区华 强北路华强广场负一层","Longitude":114.0924374822,"Latitude":22.5499964532},{"Name":"深圳国商店","Address":"深圳市嘉宾路 国际商场首层","Longitude":114.1241612595,"Latitude":22.5458152614},{"Name":"深圳兴华广场","Address":"深圳福田区燕南路 兴华大厦首层","Longitude":114.0995524596,"Latitude":22.5511801879},{"Name":"SZ太宁路","Address":"深圳市罗湖区太宁路佰 仕达郡喜荟城二层218号","Longitude":114.1480967553,"Latitude":22.5736064641},{"Name":"SZ龙岗摩尔城","Address":"广东省深圳市龙岗区 深惠路摩尔城2楼","Longitude":114.3050763256,"Latitude":22.7652599722},{"Name":"信兴广场","Address":"深圳市深南东路 信兴广场下LG08","Longitude":114.1150730341,"Latitude":22.5486142699},{"Name":"深圳香缤广场","Address":"深圳市宝安八区香缤广 场一楼","Longitude":113.9133979896,"Latitude":22.5668288433},{"Name":"怡景中心城","Address":"深圳市福田区中心区福 华一路新怡景商业中心","Longitude":114.0661332596,"Latitude":22.5405057247},{"Name":"南海大道","Address":"深圳市蛇口花园城商业 中心首层A05-07号商铺","Longitude":113.9297487186,"Latitude":22.5084128818}]},{"Name":"湛江","Stores":[{"Name":"湛江同德城广场","Address":"湛江吴川市同德路同德 城广场二期P5商铺","Longitude":110.7806393824,"Latitude":21.4507150916},{"Name":"湛江世贸店","Address":"湛江市中山一路2号 世贸大厦首层","Longitude":110.3720530052,"Latitude":21.2734943615},{"Name":"湛江国贸","Address":"湛江市人民大道南 国贸大厦B座首层","Longitude":110.4121533779,"Latitude":21.2037179542}]},{"Name":"肇庆","Stores":[{"Name":"肇庆星湖国际","Address":"肇庆端州四路星湖国际 广场首层","Longitude":112.4792589563,"Latitude":23.062605156},{"Name":"肇庆四会署光","Address":"肇庆四会署光路1号 肇庆四会署光路1号","Longitude":111.5103138749,"Latitude":23.4393060567}]},{"Name":"中山","Stores":[{"Name":"石岐店","Address":"中山市石岐大信南路 大信新都汇首层商铺","Longitude":121.5931202253,"Latitude":22.5391259659},{"Name":"小榄顺昌店","Address":"中山市小榄镇新华中路 顺昌购物广场首层","Longitude":113.3992099184,"Latitude":22.5239805286},{"Name":"中山古镇益华百货","Address":"中山市古镇中兴大道国 贸大酒店A区首层13卡","Longitude":113.1963396163,"Latitude":22.6227592496}]},{"Name":"珠海","Stores":[{"Name":"拱北店","Address":"珠海市迎宾南路 1077号地下","Longitude":113.5591646034,"Latitude":22.2282190945},{"Name":"ZH斗门步行街","Address":"广东珠海斗门区新民路 步行街","Longitude":113.306071814,"Latitude":22.2167713247},{"Name":"香洲店","Address":"珠海市香洲凤凰南路 1138号首层","Longitude":113.5855946825,"Latitude":22.2805459365},{"Name":"珠海吉大","Address":"珠海市吉大景山路 珠海百货广场首层","Longitude":113.5860601422,"Latitude":22.2613643757},{"Name":"ZH拱北口岸广场","Address":"珠海市拱北迎宾南路 1003号负一层","Longitude":113.5617678213,"Latitude":22.2238014985}]}]},{"Name":"广西","Cities":[{"Name":"北海","Stores":[{"Name":"北海长青路","Address":"广西北海市长青路1号 和安购物中心首层","Longitude":109.1247028334,"Latitude":21.4777063081}]},{"Name":"桂林","Stores":[{"Name":"桂林环城路","Address":"桂林市环城西一路117号 117号","Longitude":110.2862114664,"Latitude":25.2608108379},{"Name":"GL王城百货","Address":"桂林市秀峰区解放东路 11号","Longitude":110.3052498623,"Latitude":25.2841386797},{"Name":"桂林梦之岛","Address":"桂林中山中路 20号","Longitude":110.3001251352,"Latitude":25.2795237428}]},{"Name":"柳州","Stores":[{"Name":"柳州工贸","Address":"广西柳州市龙城路 2号","Longitude":109.4177303077,"Latitude":24.3184868185}]},{"Name":"南宁","Stores":[{"Name":"NN南宁百货大楼","Address":"南宁市兴宁区朝阳路 39-41号首层","Longitude":108.3271828966,"Latitude":22.8234442498},{"Name":"南宁城市出品","Address":"广西南宁市民族大道41 号首层","Longitude":108.3206486018,"Latitude":22.8162971701},{"Name":"NN华润万象城","Address":"南宁市青秀区民族大道 136号负一楼","Longitude":108.3987437089,"Latitude":22.8183248932},{"Name":"NN香格里拉","Address":"南宁市西乡塘区秀灵路 香格里拉商业广场","Longitude":108.3076436286,"Latitude":22.8502220717}]},{"Name":"梧州","Stores":[{"Name":"梧州新兴三路","Address":"广西梧州长洲区新兴三 路3号首层","Longitude":111.2847131127,"Latitude":23.4837508715}]},{"Name":"玉林","Stores":[{"Name":"YL玉林人民东路","Address":"广西玉林市人民东路802 号首层","Longitude":110.1631891757,"Latitude":22.6385818731}]}]},{"Name":"贵州","Cities":[{"Name":"贵阳","Stores":[{"Name":"贵阳南国花锦","Address":"贵阳市中华中路 108号","Longitude":106.7193235382,"Latitude":26.5869889824},{"Name":"GY亨特城市广场","Address":"贵州省贵阳市南明区文 昌南路亨特城市广场","Longitude":106.7253360011,"Latitude":26.5804246664},{"Name":"GY金阳国贸广","Address":"贵州省贵阳市金阳新区 金阳南路6号","Longitude":106.6367269733,"Latitude":26.6534200021},{"Name":"GY新华都","Address":"贵阳市云岩区富水北 路物资大厦1层","Longitude":106.7205941382,"Latitude":26.5886471824},{"Name":"贵阳星天地","Address":"贵阳市中山西路 77号","Longitude":106.7159161382,"Latitude":26.5833081824}]},{"Name":"遵义","Stores":[{"Name":"ZY老城新街","Address":"贵州省遵义市红花岗区 民主路老城新街1层","Longitude":106.9273686835,"Latitude":27.6937220611}]}]},{"Name":"海南","Cities":[{"Name":"三亚","Stores":[{"Name":"三亚解放路步行街","Address":"三亚市解放路 步行街","Longitude":109.5106727063,"Latitude":18.2554811952},{"Name":"海口友谊","Address":"海口市大同路2号友谊 商业广场首层","Longitude":110.343945327,"Latitude":20.0436099403},{"Name":"海南解放三路","Address":"海南省三亚市解放 三路明珠广场首层","Longitude":109.5104063811,"Latitude":18.2627594818},{"Name":"HK海口明珠广场","Address":"海南省海口市海秀东路 16号首层","Longitude":110.3480902587,"Latitude":20.0351072139},{"Name":"SY宝盛广场","Address":"海南省三亚市解放路2 号宝盛广场","Longitude":109.5092292063,"Latitude":18.2550121952},{"Name":"海口上邦","Address":"海口市龙华路98号上邦 百汇城3号楼A馆首层","Longitude":110.3245755895,"Latitude":20.0281974856},{"Name":"海口南亚广场","Address":"海口市海府路18号南亚 广场首层","Longitude":110.3575802394,"Latitude":20.0366616248}]}]},{"Name":"河北","Cities":[{"Name":"保定","Stores":[{"Name":"BD华联","Address":"河北保定市南市区裕华 西路201号地下一层","Longitude":115.5085536831,"Latitude":38.8638265505},{"Name":"BD先天下","Address":"保定市中朝阳北大街与 天鹅路交汇口先天下商","Longitude":115.4749480197,"Latitude":38.8950116738}]},{"Name":"承德","Stores":[{"Name":"CD承德商厦","Address":"承德市双桥区南营子大 10号承德商厦首层","Longitude":117.9433168134,"Latitude":40.9833000062}]},{"Name":"邯郸","Stores":[{"Name":"HD新世纪","Address":"邯郸丛台区人民东路219 号新世纪广场一层","Longitude":114.5020336328,"Latitude":36.6164593445}]},{"Name":"廊坊","Stores":[{"Name":"SH燕郊百花","Address":"河北三河市燕郊学院路 南公园西侧百花超市首","Longitude":116.8055014892,"Latitude":39.9574682707},{"Name":"LF万达","Address":"廊坊市广阳区永丰道以 南文明路以东万达广场","Longitude":116.711385623,"Latitude":39.5261216271},{"Name":"廊坊新朝阳","Address":"河北省廊坊市广阳区爱 民东道111号首层","Longitude":116.7316150296,"Latitude":39.5347876223}]},{"Name":"秦皇岛","Stores":[{"Name":"QHD茂业百货","Address":"秦皇岛市海港区 文化路139号","Longitude":119.6100333221,"Latitude":39.9377730556}]},{"Name":"石家庄","Stores":[{"Name":"石家庄新百店","Address":"河北省石家庄市桥西区 中山西路139号","Longitude":114.4848047541,"Latitude":38.0499300137},{"Name":"石家庄北国","Address":"石家庄中山东路188号石 家庄北国商城B1","Longitude":114.517411189,"Latitude":38.0490086734},{"Name":"谷购时代","Address":"石家庄市桥西区金桥 北大街2号","Longitude":114.4907369322,"Latitude":38.0516994572}]},{"Name":"唐山","Stores":[{"Name":"唐山远洋店","Address":"河北唐山市路北区建设 北路128号","Longitude":118.1820225425,"Latitude":39.6748054757},{"Name":"唐山三利","Address":"唐山市路南区三利国际 购物中心二层","Longitude":118.1826313752,"Latitude":39.6314132127}]},{"Name":"邢台","Stores":[{"Name":"XT天一城","Address":"邢台市桥东区新华北路 天一城时尚百货一层","Longitude":114.5045180352,"Latitude":37.0767241349}]}]},{"Name":"河南","Cities":[{"Name":"安阳","Stores":[{"Name":"AY凯德沃尔玛","Address":"安阳红旗路与人民大道 交叉西南角嘉信茂广场","Longitude":114.3608238156,"Latitude":36.1196432396}]},{"Name":"开封","Stores":[{"Name":"KF新都汇广场","Address":"开封龙亭区西大街98号 新都汇购物广场首层","Longitude":104.0842676965,"Latitude":30.6639564125}]},{"Name":"洛阳","Stores":[{"Name":"洛阳新都汇广场","Address":"洛阳市解放路56号新都 汇广场","Longitude":112.4402486882,"Latitude":34.6778226503},{"Name":"万达广场","Address":"河南省洛阳市辽宁路168 号","Longitude":112.4150418411,"Latitude":34.6605411043}]},{"Name":"南阳","Stores":[{"Name":"红都广场","Address":"南阳市卧龙区人民路与 新华路交汇处东北角","Longitude":112.5420985644,"Latitude":33.0028362223}]},{"Name":"新乡","Stores":[{"Name":"新乡太原路","Address":"新乡市平原路139号盛世 大厦胖东来百货1层","Longitude":113.8834863101,"Latitude":35.3116085391}]},{"Name":"许昌","Stores":[{"Name":"XC大商新玛特","Address":"许昌市魏都区建设路708 号大商新玛特首层","Longitude":113.8357033929,"Latitude":34.0275663741}]},{"Name":"郑州","Stores":[{"Name":"郑州大上海","Address":"郑州市东太康路24号大 海首层","Longitude":113.6758466659,"Latitude":34.7618005583},{"Name":"国贸中心","Address":"河南省郑州市金水区 花园路39号","Longitude":113.6856718692,"Latitude":34.7894639332},{"Name":"郑州家乐福店","Address":"郑州市文化路126号 家乐福首层","Longitude":113.6713838283,"Latitude":34.8174839021},{"Name":"郑州紫金山","Address":"郑州市紫荆山路1号 紫荆山百货大楼","Longitude":113.6881107082,"Latitude":34.7686848276},{"Name":"郑州百年德化","Address":"河南省郑州市二十七区 德化街100号","Longitude":113.673553063,"Latitude":34.7576610513},{"Name":"郑州曼哈顿","Address":"郑州市金水路 288号","Longitude":113.7127603333,"Latitude":34.7667141458},{"Name":"ZZ二七万达广场","Address":"郑州二七区航海路南大 学路西2071铺（二层）","Longitude":113.6494396514,"Latitude":34.7260469021},{"Name":"ZZ万达广场","Address":"郑州中原区中原西路南 秦岭路西万达广场二层","Longitude":113.6095091791,"Latitude":34.7530359978},{"Name":"郑州华联","Address":"郑州市民主路3号 北京华联商厦","Longitude":113.671064353,"Latitude":34.7602637891}]}]},{"Name":"黑龙江","Cities":[{"Name":"哈尔滨","Stores":[{"Name":"哈尔滨欧罗巴","Address":"哈尔滨市尚志大街 金安欧罗巴国际广场","Longitude":126.6263066342,"Latitude":45.7774309182},{"Name":"哈尔滨乐松","Address":"哈尔滨动力区乐松小区 乐松购物广场首层","Longitude":126.6562561419,"Latitude":45.7254357963},{"Name":"国展","Address":"哈尔滨市南岗区西大直 街40号","Longitude":126.6472039467,"Latitude":45.7604204086},{"Name":"HRB衡山路万达","Address":"哈尔滨市香坊区赣水路 68号","Longitude":126.6841954215,"Latitude":45.7471817311},{"Name":"哈尔滨万达生活城","Address":"哈尔滨市道里区友谊路 187号沃尔玛首层","Longitude":126.6217346595,"Latitude":45.7851215149},{"Name":"HRB原宿春天","Address":"哈尔滨市中央大街防洪 纪念塔地下通道负一层","Longitude":126.6247706595,"Latitude":45.7846825149}]},{"Name":"佳木斯","Stores":[{"Name":"JMS新玛特","Address":"佳木斯市前进区保卫社区","Longitude":130.381637751,"Latitude":46.8196421343}]},{"Name":"牡丹江","Stores":[{"Name":"牡丹江百货大楼","Address":"牡丹江市太平路31号牡 丹江百货大楼一层","Longitude":129.6219533489,"Latitude":44.591964389}]},{"Name":"齐齐哈尔","Stores":[{"Name":"QQHE新玛特","Address":"齐齐哈尔市龙沙区龙华 路1号","Longitude":123.96469821,"Latitude":47.3478521189}]}]},{"Name":"湖北","Cities":[{"Name":"黄石","Stores":[{"Name":"HS威伊盛广场","Address":"湖北黄石黄石大道 651号首层","Longitude":115.0996792225,"Latitude":30.2170443649}]},{"Name":"荆州","Stores":[{"Name":"荆州美佳华","Address":"湖北荆州沙市北京中路 美佳华购物广场首层","Longitude":112.2610713943,"Latitude":30.31336007}]},{"Name":"十堰","Stores":[{"Name":"SY张湾五堰商场","Address":"湖北十堰五堰北街10号 五堰商场首层","Longitude":110.7933293374,"Latitude":32.6483780477}]},{"Name":"武汉","Stores":[{"Name":"武汉光谷大洋","Address":"光谷世界城光谷街3号-1 区-101号光谷大洋百货","Longitude":121.4170789728,"Latitude":31.1057148024},{"Name":"武汉假日乐园","Address":"武汉市武昌区解放路464 号","Longitude":114.3074456445,"Latitude":30.5561904042},{"Name":"WH江汉长盛大厦","Address":"武汉市江岸区江汉路 122-124号一层","Longitude":114.2961374963,"Latitude":30.5883211879},{"Name":"武汉佳丽广场","Address":"武汉市中山大道818号佳 丽广场首层","Longitude":114.2978207348,"Latitude":30.5837217114},{"Name":"WH江汉万达广场","Address":"武汉市江汉区唐家墩路 5号首层","Longitude":114.2767111986,"Latitude":30.6165450328},{"Name":"武汉世贸广场","Address":"武汉市解放大道686号武 汉世贸广场地下一层","Longitude":114.2749095336,"Latitude":30.5863426436},{"Name":"WH光谷国际广场","Address":"武汉东湖高新珞瑜路与 鲁磨路口光谷国际一楼","Longitude":114.4047150702,"Latitude":30.5123632996},{"Name":"武汉21世纪购物中心","Address":"武汉市汉阳大道 21世纪购物中心","Longitude":114.2848728622,"Latitude":30.5549760993},{"Name":"武汉亚贸","Address":"武汉市武珞路628号武商 亚贸广场购物中心首层","Longitude":114.3483485483,"Latitude":30.5360169411},{"Name":"WH洪山乐天城","Address":"湖北武汉洪山区街道口 狮城广场首层","Longitude":114.3610800913,"Latitude":30.5321397879},{"Name":"武汉SHOPPINGMALL","Address":"武汉市徐东大街18号 武汉销品茂2/F","Longitude":114.3480739065,"Latitude":30.5972974042},{"Name":"武汉铜锣湾百货","Address":"武汉市汉阳区 鹦鹉大道一层","Longitude":114.2725600602,"Latitude":30.5590450205},{"Name":"WH江岸潮流百货","Address":"湖北省武汉江岸区江汉 1路58号首层","Longitude":114.2972758348,"Latitude":30.5874540114},{"Name":"青山商场","Address":"武汉青山区和平大道 1544号青山商场首层","Longitude":114.4090766211,"Latitude":30.6451285719},{"Name":"WH五环峰百货","Address":"湖北武汉武昌区解放路 338号首层","Longitude":114.3052193175,"Latitude":30.5471749654},{"Name":"WH东湖爱尚地","Address":"武汉东湖高新光谷街3 号世界城光谷步行街1","Longitude":114.4079630702,"Latitude":30.5114572996},{"Name":"WH武昌南湖广场","Address":"南湖建安街与丁字桥南 路交汇处南湖城市广场","Longitude":114.3320410706,"Latitude":30.5103044526},{"Name":"WH洪山区未来城","Address":"武汉洪山区珞狮南路147 号未来城","Longitude":114.3598874359,"Latitude":30.531618556},{"Name":"WH高新光谷天地","Address":"武汉东湖开发区关山一 路以东首层","Longitude":114.4178278681,"Latitude":30.4824702778},{"Name":"武汉徐东新世界","Address":"武汉市洪山区徐东路7 号新世界百货首层","Longitude":114.3532655557,"Latitude":30.5948908467},{"Name":"WH江汉大润发","Address":"湖北武汉江汉区江汉路 257号","Longitude":114.2919336985,"Latitude":30.5910612724},{"Name":"武汉中南店","Address":"武汉市武昌区中南路3 号领秀中南大厦首层","Longitude":114.3381817816,"Latitude":30.541807897},{"Name":"武汉时尚名都","Address":"武汉市武昌区水果湖横 路11-13号1楼","Longitude":114.3499190455,"Latitude":30.5532698412}]},{"Name":"咸宁","Stores":[{"Name":"XN瑞融国际广场","Address":"湖北咸宁温泉路66号","Longitude":114.342421298,"Latitude":29.8325791843}]},{"Name":"襄樊","Stores":[{"Name":"银泰百货","Address":"湖北囊樊樊城区解放路 炮铺街特1号首层","Longitude":112.1638573349,"Latitude":32.0470624172},{"Name":"XF樊城万达广场","Address":"襄樊樊城区长虹北路9 号首层","Longitude":112.1406031233,"Latitude":32.0692689167},{"Name":"XF樊城长虹路","Address":"湖北襄樊樊城区人民路 民发商业广场A栋一层","Longitude":112.1424986889,"Latitude":32.0439042643}]},{"Name":"孝感","Stores":[{"Name":"XG孝南保丽广场","Address":"湖北孝感长征路23号保 丽广场首层","Longitude":113.9320548458,"Latitude":30.9276006726}]},{"Name":"宜昌","Stores":[{"Name":"宜昌CBD","Address":"宜昌市西陵区夷陵路中 心商务区一期D栋首层","Longitude":111.2921647358,"Latitude":30.7164652688},{"Name":"YC伍家万达广场","Address":"湖北宜昌伍家岗区沿江 大道特166号首层","Longitude":111.3131880569,"Latitude":30.6864462441}]}]},{"Name":"湖南","Cities":[{"Name":"长沙","Stores":[{"Name":"长沙阿波罗","Address":"长沙市车站中路345号 阿波罗商业广场","Longitude":113.0177407887,"Latitude":28.2028890434},{"Name":"长沙星沙通程","Address":"长沙星沙经济技术开发 区板仓路星沙通程广场","Longitude":113.0857353972,"Latitude":28.2504803232},{"Name":"长沙通程店","Address":"长沙市枫林一路39号 通程商业广场首层","Longitude":112.9582220451,"Latitude":28.2020295934},{"Name":"长沙嘉顿","Address":"长沙市五一大道655号 嘉顿新天地大厦","Longitude":112.9815590996,"Latitude":28.2005321994},{"Name":"CS潮流特区","Address":"湖南省长沙市芙蓉区黄 兴南路326号(现400号)","Longitude":112.982558034,"Latitude":28.1875062317},{"Name":"CS春天百货店","Address":"长沙市黄兴中路69号 春天百货首层","Longitude":112.9826870359,"Latitude":28.2019960095},{"Name":"长沙雨花亭店","Address":"长沙市韶山中路 雨花亭广场首层","Longitude":113.0021257616,"Latitude":28.1606815011},{"Name":"长沙家润多","Address":"长沙人民路9号家润多 百货广场","Longitude":113.0255130133,"Latitude":28.1912191583},{"Name":"ZZ株洲王府井","Address":"株洲芦淞区新华西路999 号中心广场负一楼","Longitude":113.1601688082,"Latitude":27.8444189498},{"Name":"CS乐和城","Address":"长沙市芙蓉区黄兴中 路188号负一层","Longitude":112.9830027359,"Latitude":28.2013938095},{"Name":"CS通程商业广场","Address":"长沙市雨花区湘府东路 二段517号首层","Longitude":113.0221925217,"Latitude":28.1162355466},{"Name":"长沙东塘劳动路","Address":"长沙市劳动路589号负一 层","Longitude":113.0006666296,"Latitude":28.1755782872},{"Name":"长沙韶山南路","Address":"湖南省长沙市雨花区韶 山路107号","Longitude":113.001358651,"Latitude":28.1491948961},{"Name":"长沙新世界百货","Address":"芙蓉区五一西路153号 新世界百货","Longitude":112.9847364145,"Latitude":28.2004738724}]},{"Name":"常德","Stores":[{"Name":"常德水星楼","Address":"常德市人民中路水星楼 购物广场","Longitude":111.7009528698,"Latitude":29.0347870633}]},{"Name":"郴州","Stores":[{"Name":"CZ人民西路","Address":"湖南郴州市北湖区人民 西路8号世贸中心首层","Longitude":113.033835197,"Latitude":25.8013419232}]},{"Name":"衡阳","Stores":[{"Name":"衡阳国美","Address":"衡阳市石鼓区解放路58 号今日新城首层","Longitude":112.6140129968,"Latitude":26.9022108259},{"Name":"衡阳晶珠广场","Address":"衡阳市蒸湘区船山西路 2号晶珠广场","Longitude":112.6057366518,"Latitude":26.9090236805}]},{"Name":"怀化","Stores":[{"Name":"HH佳惠华盛堂","Address":"怀化市人民南路118号佳 惠华盛堂百货首层","Longitude":109.9747083929,"Latitude":27.5545141882}]},{"Name":"吉首","Stores":[{"Name":"JS吉首和盛堂","Address":"湖南吉首市人民北路99 号和盛堂购物中心首层","Longitude":109.7448151004,"Latitude":28.3139965099}]},{"Name":"邵阳","Stores":[{"Name":"邵阳红旗路","Address":"邵阳市大祥区红旗路56 号万里百货首层","Longitude":111.473270821,"Latitude":27.2421779156}]},{"Name":"湘潭","Stores":[{"Name":"建设路","Address":"湖南湘潭岳塘区建设路 街道华隆大厦首层","Longitude":112.9320992418,"Latitude":27.8310193978},{"Name":"湘潭康星","Address":"湘潭市雨湖区车站 路1号首层","Longitude":112.9140036015,"Latitude":27.8656609274},{"Name":"湘潭心连心百货","Address":"湘潭市韶山中路基建营 心连心百货","Longitude":112.9128831016,"Latitude":27.8696324274}]},{"Name":"益阳","Stores":[{"Name":"益阳桃花伦","Address":"益阳市桃花伦西路555号 嘉信茂广场首层","Longitude":112.358075759,"Latitude":28.585829233}]},{"Name":"岳阳","Stores":[{"Name":"岳阳康星","Address":"湖南省岳阳市巴陵路步 行街一百大厦首层","Longitude":113.1768296459,"Latitude":29.3758359896}]},{"Name":"株洲","Stores":[{"Name":"株州车站路","Address":"湖南省株洲市车站路1 号平和堂百货夹层","Longitude":113.1604668763,"Latitude":27.8401658715}]}]},{"Name":"吉林","Cities":[{"Name":"长春","Stores":[{"Name":"CC中东大市场","Address":"长春经济技术开发区自 由大路6738号中东市场","Longitude":125.3983127621,"Latitude":43.8707152837},{"Name":"长春亚泰富苑","Address":"长春市朝阳区重庆路618 号亚泰富苑购物中心2","Longitude":125.333426552,"Latitude":43.8970449954},{"Name":"长春新天地","Address":"长春市 亚泰大街","Longitude":125.3468668269,"Latitude":43.8603742648},{"Name":"香年三越","Address":"长春市朝阳区同志街254 8号","Longitude":125.3248749868,"Latitude":43.8721677019},{"Name":"CC万达购物广场","Address":"长春市朝阳区红旗街12 号首层","Longitude":125.302187363,"Latitude":43.8737363058},{"Name":"CC欧亚商都","Address":"吉林省长春市朝阳区 工农大道欧亚商都负一","Longitude":125.308150363,"Latitude":43.8773023058},{"Name":"长春欧亚","Address":"长春市朝阳区开运街 5178号","Longitude":125.2537085282,"Latitude":43.85018751},{"Name":"CC巴黎春天百货","Address":"长春市朝阳区工农大路 29号二层","Longitude":125.304576363,"Latitude":43.8767513058}]},{"Name":"吉林","Stores":[{"Name":"国贸购物中心","Address":"吉林省吉林市昌邑区重 庆街1188号国贸购物中","Longitude":126.5745995988,"Latitude":43.85542243},{"Name":"JL时代购物广场","Address":"吉林市船营区南京街12 号","Longitude":126.5647706958,"Latitude":43.8510508143}]},{"Name":"四平","Stores":[{"Name":"SP维美百货","Address":"吉林省四平市铁西区仁 兴步行街F1&B1","Longitude":124.3759997482,"Latitude":43.1748197733}]},{"Name":"延吉","Stores":[{"Name":"YJ百货大楼","Address":"延吉市光明街608号延吉 百货大楼","Longitude":129.5190769464,"Latitude":42.9123184773}]}]},{"Name":"江苏","Cities":[{"Name":"常州","Stores":[{"Name":"常州莱蒙都会","Address":"常州市钟楼区莱蒙都会 A7-A8街区一楼","Longitude":119.9082452742,"Latitude":31.8082564857}]},{"Name":"淮安","Stores":[{"Name":"金鹰百货","Address":"江苏省淮安市清河区 淮海东路126号一楼","Longitude":119.038654873,"Latitude":33.6041345318}]},{"Name":"连云港","Stores":[{"Name":"LYG中央国际","Address":"连云港新浦区解放中路 56号1层","Longitude":119.1838010717,"Latitude":34.6098139289}]},{"Name":"南京","Stores":[{"Name":"南京流行青年店","Address":"南京市白下区 洪武路50号1楼B2","Longitude":118.7932567385,"Latitude":32.0456208963},{"Name":"NJ大洋百货","Address":"南京白下区中山南路122 号地下一楼","Longitude":118.7898919655,"Latitude":32.0444393182},{"Name":"NJ德基广场","Address":"江苏南京玄武区中山路 18号B1层","Longitude":118.7907989655,"Latitude":32.0496623182},{"Name":"建邺万达","Address":"南京建邺区江东中路98 号一层","Longitude":118.7443996178,"Latitude":32.0391347403},{"Name":"NJ鼓楼龙世中心","Address":"南京鼓楼区中山路221号 负一层","Longitude":118.7905038989,"Latitude":32.0571923317},{"Name":"NJ鼓楼太平洋","Address":"南京鼓楼区中山北路86 号一层","Longitude":118.7812769688,"Latitude":32.0733723324},{"Name":"南京八佰伴","Address":"南京市湖南路1号负一 层","Longitude":118.7899441337,"Latitude":32.074242462},{"Name":"南京金轮广场","Address":"南京汉中路108号 负一层","Longitude":118.7851979655,"Latitude":32.0486613182},{"Name":"NJ浦口大洋百货","Address":"南京浦口区大桥北路48","Longitude":118.7382882254,"Latitude":32.14320319},{"Name":"NJ六合苏宁店","Address":"南京六合区大厂长 冲街88号1层","Longitude":118.7711680606,"Latitude":32.2371018472},{"Name":"NJ国际金融中心","Address":"南京白下区汉中路1号 负一层","Longitude":118.7889289655,"Latitude":32.0478203182},{"Name":"南京新世纪广场店","Address":"南京市中山东路288号新 世纪广场","Longitude":118.8021847633,"Latitude":32.0466450852},{"Name":"NJ江宁欧尚","Address":"南京江宁经济技术开发 秦淮路11号首层","Longitude":118.8243990286,"Latitude":31.9587100343},{"Name":"南京CHANGLI RD","Address":"南京市秦淮区长乐路 好又多商业广场首层","Longitude":118.7951329469,"Latitude":32.0222101986},{"Name":"南京新城市广场","Address":"南京市鼓楼区草场门大 街99号(负一层)","Longitude":118.7474803864,"Latitude":32.0637001316},{"Name":"江宁黄金海岸","Address":"江苏南京市江宁区金 箔路999号一层","Longitude":118.8435268747,"Latitude":31.9558748507}]},{"Name":"南通","Stores":[{"Name":"南通亚萍国际广场","Address":"南通市崇川区南大街2 号","Longitude":120.8717440778,"Latitude":32.022250695}]},{"Name":"苏州","Stores":[{"Name":"平江观前店","Address":"苏州平江区太监弄8号 首层","Longitude":120.6328535921,"Latitude":31.3167107149},{"Name":"苏州太仓新城","Address":"苏州太仓人民南路124号 新城广场一层","Longitude":121.1136847816,"Latitude":31.4539363652},{"Name":"吴江万亚","Address":"苏州吴江永康路137号一 层","Longitude":120.6527588999,"Latitude":31.1673982551},{"Name":"张家港国购","Address":"张家港市步行街 2号果B1","Longitude":120.5500848656,"Latitude":31.8685046809},{"Name":"昆山商厦","Address":"江苏省昆山市人民南路 146-148号","Longitude":121.1118821816,"Latitude":31.4561770652},{"Name":"苏州大洋","Address":"苏州市人民路1331号 地下1层","Longitude":120.6280773805,"Latitude":31.3153373732},{"Name":"高新绿宝店","Address":"苏州高新区长江路436号 首层","Longitude":120.5555103736,"Latitude":31.3064049778},{"Name":"SZ玉山正阳桥","Address":"苏州昆山震川西路130号 一楼","Longitude":120.9635038266,"Latitude":31.3839309095},{"Name":"常熟印象城店","Address":"苏州常熟市海虞南路88 号首层1009A室","Longitude":120.7645169747,"Latitude":31.6548954968}]},{"Name":"泰州","Stores":[{"Name":"金鹰百货","Address":"江苏省泰州市海陵区东 进东路18号1层","Longitude":119.9275565185,"Latitude":32.5021933258}]},{"Name":"无锡","Stores":[{"Name":"无锡汇金广场","Address":"无锡市中山路188号 1层","Longitude":120.3087960234,"Latitude":31.5785105424},{"Name":"WX滨湖万达广场","Address":"无锡梁溪路 35号","Longitude":120.2730807262,"Latitude":31.5686619222},{"Name":"WX崇安商业大厦","Address":"无锡中山路343号无锡商 业大厦地下一层/-1/F","Longitude":120.3061686124,"Latitude":31.5828129183},{"Name":"WX宜兴和信广场","Address":"江苏省宜兴市人名中路 228号一层","Longitude":119.8255425416,"Latitude":31.3728346865}]},{"Name":"徐州","Stores":[{"Name":"徐州彭城一号","Address":"江苏省徐州市彭楼区彭 城路一号一层","Longitude":117.1941708782,"Latitude":34.2727984315},{"Name":"XZ泉州易初爱莲","Address":"江苏省徐州泉山区解放 南路延长段28号","Longitude":117.2019060957,"Latitude":34.2283112967}]},{"Name":"盐城","Stores":[{"Name":"YC亭湖建军路","Address":"江苏盐城建军中路146号 一层","Longitude":120.1375839617,"Latitude":33.3881531609}]},{"Name":"扬州","Stores":[{"Name":"扬州时代大厦","Address":"杨州市文昌中路537号时 代大厦首层","Longitude":119.4389544199,"Latitude":32.3986895424},{"Name":"江都商城","Address":"江苏江都工农路2号1楼 2号1楼","Longitude":119.5725779111,"Latitude":32.4326144365}]},{"Name":"镇江","Stores":[{"Name":"ZJ润州万达广场","Address":"镇江润州区黄山西路9 号万达广场一层","Longitude":32.2011935349,"Latitude":32.2011935349}]}]},{"Name":"江西","Cities":[{"Name":"赣州","Stores":[{"Name":"GZ百货大楼","Address":"江西省赣州市章贡区文 清路4号首层","Longitude":114.9463233921,"Latitude":25.857084919},{"Name":"GZ中航城店","Address":"江西省赣州市章贡区长 征大道1号","Longitude":114.9412500097,"Latitude":25.8421550944}]},{"Name":"九江","Stores":[{"Name":"太平洋百货","Address":"九江浔阳区浔阳东路 356号一楼","Longitude":116.012139097,"Latitude":29.7261595462}]},{"Name":"南昌","Stores":[{"Name":"洪客隆","Address":"南昌西湖区中山路150号 洪客隆百货中山店首层","Longitude":115.9039117674,"Latitude":28.6808143448},{"Name":"南昌动壹","Address":"江西省南昌市中山路 320号动壹基地负一","Longitude":115.898214694,"Latitude":28.6817311006},{"Name":"NC红谷滩万达","Address":"江西南昌会展 路999号","Longitude":115.8541477565,"Latitude":28.6970939888},{"Name":"南昌八一广场","Address":"江西省南昌市孺子路1 号丽华购物广场首层","Longitude":115.9087647674,"Latitude":28.6785163448}]},{"Name":"上饶","Stores":[{"Name":"上饶解放路店","Address":"江西省上饶市解放路1 号解百商厦首层","Longitude":117.9726889176,"Latitude":28.4502160035}]}]},{"Name":"辽宁","Cities":[{"Name":"鞍山","Stores":[{"Name":"鞍山新世界店","Address":"鞍山市铁东区五一路38 号","Longitude":123.0003400619,"Latitude":41.118645855}]},{"Name":"本溪","Stores":[{"Name":"华联","Address":"本溪市平山区站前办 华联街1号","Longitude":123.7671966077,"Latitude":41.2967317354}]},{"Name":"朝阳","Stores":[{"Name":"CY兴隆达家庭","Address":"朝阳市双塔区朝阳 大街四段1号","Longitude":120.447828468,"Latitude":41.5854548447}]},{"Name":"大连","Stores":[{"Name":"安盛购物广场","Address":"大连市开发区金马路189 号安盛购物广场首层","Longitude":121.7859238943,"Latitude":39.0555355963},{"Name":"大连罗斯福店","Address":"大连市沙河口区天兴 罗斯福国际中心1层","Longitude":121.5931202253,"Latitude":38.9201292222},{"Name":"大连胜利广场","Address":"大连中山区胜利广场28 号","Longitude":121.6418488226,"Latitude":38.9251013048},{"Name":"大连百年城","Address":"大连市中山区解放路19 号白年商城G层G32-33铺","Longitude":121.6423555226,"Latitude":38.9227535048},{"Name":"大连嘉和店","Address":"大连市中山区鲁迅路 29-5号JH102","Longitude":121.6606270475,"Latitude":38.9256957756},{"Name":"大连和平广场","Address":"大连市沙河口区中山路 大连和平广场首层","Longitude":121.592830061,"Latitude":38.9033856468},{"Name":"大连金州店","Address":"大连金州区斯大林路677 号一层","Longitude":121.7237611044,"Latitude":39.1083414017},{"Name":"DL安盛华南店","Address":"大连市甘井子区中华西 路一层","Longitude":121.5997357287,"Latitude":38.9951932624}]},{"Name":"丹东","Stores":[{"Name":"新玛特店","Address":"丹东市元宝区金汤 街1号","Longitude":124.396773,"Latitude":40.133474}]},{"Name":"阜新","Stores":[{"Name":"百货大楼","Address":"辽宁阜新市海州区解放 大街东北阜新百货大楼","Longitude":123.4360067132,"Latitude":41.8411926539}]},{"Name":"葫芦岛","Stores":[{"Name":"HLD宏远新天地","Address":"葫芦岛市连山区新华大 街3号楼宏远新天地","Longitude":120.8618583019,"Latitude":40.7615781461}]},{"Name":"锦州","Stores":[{"Name":"JZ千盛购物广场","Address":"锦州凌河区上海路四段 2号锦州千盛购物广场","Longitude":121.1471108944,"Latitude":41.1256587185}]},{"Name":"盘锦","Stores":[{"Name":"PJ大商中兴商业","Address":"辽宁盘锦兴隆台区创新 街道的建筑物负一层","Longitude":122.0749796269,"Latitude":41.1329371032}]},{"Name":"沈阳","Stores":[{"Name":"万达城中城","Address":"沈阳市和平区太原 南街十八号","Longitude":123.4026463495,"Latitude":41.7993133345},{"Name":"SY铁西万达","Address":"沈阳市铁西区兴华南街 58号","Longitude":123.3655320764,"Latitude":41.7898192595},{"Name":"金利来商厦店","Address":"沈阳市山河区中街路 沈阳金利来商厦首层","Longitude":123.4655383004,"Latitude":41.8095430305},{"Name":"屈臣氏 东舜百货","Address":"沈阳市太原北街95号 东舜百货","Longitude":123.4120131363,"Latitude":41.803636844},{"Name":"SY华锐","Address":"沈阳市沈河区哈尔滨路 118号华府天地一层","Longitude":123.4387581171,"Latitude":41.8179325779},{"Name":"沈阳大悦城","Address":"沈阳市大东区小东路6 号A馆第一层101\\102a号","Longitude":123.4722560055,"Latitude":41.8081647322}]}]},{"Name":"内蒙古","Cities":[{"Name":"包头","Stores":[{"Name":"BT万达广场","Address":"内蒙古包头市青山区青 年路南体育馆道西首层","Longitude":109.8673314093,"Latitude":40.6672203856},{"Name":"BT为一购物广场","Address":"包头市昆都仑区钢铁 大街65号一层","Longitude":109.8241142206,"Latitude":40.6641506954}]},{"Name":"鄂尔多斯","Stores":[{"Name":"EEDS购物中心","Address":"内蒙古鄂尔多斯市伊金 霍洛街南购物中心东侧","Longitude":109.804307688,"Latitude":39.3487810427}]},{"Name":"呼和浩特","Stores":[{"Name":"HHHT万达广场","Address":"呼和浩特市赛罕区新华 东街以南，丁香路以西","Longitude":111.7418977639,"Latitude":40.8428656863},{"Name":"HHHT民族","Address":"呼和浩特市回民区中山 西路7号1层","Longitude":111.6743535957,"Latitude":40.8204230606},{"Name":"HHHT维多莉中心","Address":"呼和浩特回民区锡林北 路首府广场1号楼首层","Longitude":111.6301890568,"Latitude":40.8146818151},{"Name":"HHHT长乐宫","Address":"呼和浩特市赛罕区新 华东街66号","Longitude":111.7147529231,"Latitude":40.8365043742},{"Name":"呼和浩特凯德","Address":"呼和浩特市赛罕区鄂尔 多斯大街32号嘉茂赛罕","Longitude":111.687036418,"Latitude":40.8032727673},{"Name":"HHHT维多利","Address":"呼和浩特回民区中山西 路1号海亮广场","Longitude":111.6757423487,"Latitude":40.8219633583},{"Name":"HHHT维多利商厦","Address":"呼和浩特中山西路39 号维多利商厦地下一层","Longitude":111.666581813,"Latitude":40.8152568432}]},{"Name":"乌兰察布","Stores":[{"Name":"WLCB集宁春天","Address":"乌兰察布市恩和路 春天商厦","Longitude":113.130279381,"Latitude":41.0412615967}]}]},{"Name":"宁夏","Cities":[{"Name":"银川","Stores":[{"Name":"YC新华购物中心","Address":"银川市兴庆区新华东街 12号","Longitude":106.2819762372,"Latitude":38.4686446089},{"Name":"YC金凤万达广场","Address":"银川市金凤区正源 北街22号2层","Longitude":106.2563378718,"Latitude":38.4933206963},{"Name":"YC文萃路新华百","Address":"银川市西夏文萃路56号","Longitude":106.1432177056,"Latitude":38.4951379617}]}]},{"Name":"青海","Cities":[{"Name":"西宁","Stores":[{"Name":"XN东大街百秋秀","Address":"西宁市城中区东大街 38号首层","Longitude":101.7907795384,"Latitude":36.6266347386},{"Name":"XN华联购物中心","Address":"青海省西宁市城中区长 江路128号","Longitude":101.7802053498,"Latitude":36.6256034268},{"Name":"XN华联超市汇通","Address":"西宁市城西区五四大街 60号首层","Longitude":101.7670657783,"Latitude":36.637022948}]}]},{"Name":"山东","Cities":[{"Name":"济南","Stores":[{"Name":"JN万达","Address":"济南市经四路万达购物 广场首层","Longitude":117.0093358665,"Latitude":36.6685637702},{"Name":"JN恒隆广场","Address":"济南市历下区泉城路 恒隆广场二层","Longitude":117.0307781874,"Latitude":36.6693883084},{"Name":" 济南贵和商厦","Address":"济南市泉城路 101号","Longitude":117.0331870756,"Latitude":36.6712366039},{"Name":"JN银座中心","Address":"济南市槐荫区经十路 银座中心地下一层","Longitude":116.9843537898,"Latitude":36.6554318809}]},{"Name":"济宁","Stores":[{"Name":"JN运河城","Address":"济宁市太白路运河城 首层","Longitude":116.5953909402,"Latitude":35.4125760818}]},{"Name":"临沂","Stores":[{"Name":"LY奥斯卡","Address":"临沂市兰山区红旗路与 新华路交界口东北","Longitude":118.3433669707,"Latitude":35.0692299045}]},{"Name":"青岛","Stores":[{"Name":"青岛利群长江商厦","Address":"青岛市黄岛区香江路78 号利群长江商厦首层","Longitude":120.187087063,"Latitude":35.9746912851},{"Name":"QD百丽广场","Address":"青岛市市南区澳门路88 号百丽广场负一层","Longitude":120.4018486303,"Latitude":36.0657572298},{"Name":"QD台东国美","Address":"青岛市市北区台东一路 37号G/F","Longitude":120.361471238,"Latitude":36.0875691806},{"Name":"QD佳世客","Address":"青岛市市南区香港中路 72号佳世客F1","Longitude":120.4033426303,"Latitude":36.0700832298},{"Name":"万达广场","Address":"青岛市市北区延吉路112 号万达广场首层","Longitude":120.3855509067,"Latitude":36.0875358988}]},{"Name":"威海","Stores":[{"Name":"WH苏宁电器广场","Address":"威海市环翠区和平路佳 世客G/F","Longitude":122.1258846429,"Latitude":37.5083170693}]},{"Name":"潍坊","Stores":[{"Name":"潍坊世纪泰华","Address":"潍坊奎风区东风东街 360号世纪泰华广场首层","Longitude":119.1195674026,"Latitude":36.71798779}]},{"Name":"烟台","Stores":[{"Name":"烟台百盛","Address":"烟台市南大街166号 百盛购物中心","Longitude":121.3850912495,"Latitude":37.5492115082},{"Name":"YT佳世客","Address":"烟台市莱山区观海路277 号佳世客首层","Longitude":121.4546307716,"Latitude":37.4772236727}]},{"Name":"淄博","Stores":[{"Name":"淄博嘉信茂广场","Address":"山东省淄博市张店区柳 路67号嘉信茂广场一层","Longitude":118.0600052196,"Latitude":36.8296777223}]}]},{"Name":"山西","Cities":[{"Name":"长治","Stores":[{"Name":"CZ森日春天","Address":"山西省长治市城区东大 街森日春天购物中心","Longitude":113.1175591778,"Latitude":36.18872603}]},{"Name":"大同","Stores":[{"Name":"大同华林新天地","Address":"大同市红旗广场北侧华 林新天地一楼","Longitude":113.2821160555,"Latitude":40.0932446834}]},{"Name":"太原","Stores":[{"Name":"太原铜锣湾百货","Address":"太原五一路77号铜罗湾 国际购物中心一层","Longitude":112.5802905354,"Latitude":37.8752074409},{"Name":"TY北美新天地","Address":"山西省太原市小店区长 风街116号","Longitude":112.5684879568,"Latitude":37.8220519874},{"Name":"TY柳巷滨滨","Address":"山西省太原市迎泽区柳 巷南路63号一层","Longitude":112.5735022368,"Latitude":37.8699503445},{"Name":"太原和信广场","Address":"山西省太原市长风大街 705号和信广场一层","Longitude":112.5618914969,"Latitude":37.8239261698},{"Name":"太原华宇购物广场","Address":"山西太原开化寺街87号 华宇购物中心1&2层","Longitude":112.5680705738,"Latitude":37.8717019773}]}]},{"Name":"陕西","Cities":[{"Name":"安康","Stores":[{"Name":"AK金州南路店","Address":"陕西省安康市金州南路 79号首层","Longitude":109.0346488393,"Latitude":32.6969909774}]},{"Name":"宝鸡","Stores":[{"Name":"BJ银座百货","Address":"陕西省宝鸡市渭滨区经 二路50号一层","Longitude":107.1516267244,"Latitude":34.3780018002}]},{"Name":"汉中","Stores":[{"Name":"HZ万邦时代广场","Address":"汉中市天汉大道999号万 邦时代广场2号一层","Longitude":107.0334657787,"Latitude":33.0828032161}]},{"Name":"西安","Stores":[{"Name":"西安骡马市店","Address":"西安市东大街骡马市1 号南区地下一层","Longitude":108.9566051725,"Latitude":34.2657903734},{"Name":"西安时代盛典广场店","Address":"西安市西大街北广济街 时代盛典购物广场首层","Longitude":108.9452867788,"Latitude":34.2665233462},{"Name":"西安赛高","Address":"西安市未央路126号赛高 国际首层及一层","Longitude":108.9536079113,"Latitude":34.3223180895},{"Name":"西安万达店","Address":"西安市雁塔路北段8号 万达广场首层","Longitude":108.9693321246,"Latitude":34.250445614},{"Name":"XA开米广场","Address":"西安市长安中路38号开 米广场","Longitude":108.9528829541,"Latitude":34.2271054607},{"Name":"XA凤城四路店","Address":"西安市未央大道赛高 国际购物中心一层","Longitude":108.9536079113,"Latitude":34.3223180895},{"Name":"XY人民中路","Address":"陕西省咸阳市秦都区人 民中路3号盛世银泰","Longitude":108.716051827,"Latitude":34.342366764},{"Name":"西安汉唐书城","Address":"西安市长安中路111号嘉 汇大厦嘉汇汉唐书城首","Longitude":108.9537686541,"Latitude":34.2294358607},{"Name":"XA银泰百货","Address":"陕西省西安市莲湖区西 大街48号中环银泰广场","Longitude":108.9494560591,"Latitude":34.2654725071},{"Name":"西安伊时达","Address":"西安市南新街2号东方 之星商厦半下沉层","Longitude":108.9602656725,"Latitude":34.2668412734},{"Name":"XA唐延路店","Address":"西安市唐延路易初莲花 一层","Longitude":108.896942817,"Latitude":34.2404988975},{"Name":"XA劳动南路店","Address":"西安市劳动南路大唐西 市大润发一层","Longitude":108.9138901512,"Latitude":34.253733369},{"Name":"西安解放路万达","Address":"西安市解放路111号 五楼","Longitude":108.9695000603,"Latitude":34.273708128},{"Name":"XA南大街店","Address":"西安市南大街太平洋商 厦一层","Longitude":108.9534693725,"Latitude":34.2618407734},{"Name":"XA 兴庆南路","Address":"西安市碑林区兴庆南路 159号常春藤商厦一层","Longitude":108.9953499718,"Latitude":34.2545032319},{"Name":"XA大雁塔店","Address":"西安市雁塔南路新乐汇 广场50号首层与二楼","Longitude":108.971937893,"Latitude":34.2222171821},{"Name":"西安家春秋","Address":"西安市友谊东路81号家 春秋国际美居中心首层","Longitude":108.9793825545,"Latitude":34.2477785009}]},{"Name":"延安","Stores":[{"Name":"YA中心街店","Address":"延安市中心街中际大厦 一层","Longitude":109.4964786186,"Latitude":36.6000587383},{"Name":"YA中延百货","Address":"延安市宝塔区南滨河路 28号中延百货一层","Longitude":109.4996893212,"Latitude":36.5968797788}]},{"Name":"榆林","Stores":[{"Name":"YL新建北路店","Address":"陕西省榆林市新建北路 89号喜洋洋商厦1层","Longitude":109.7568737583,"Latitude":38.3010383673}]}]},{"Name":"上海","Cities":[{"Name":"上海","Stores":[{"Name":"SH静安久光店","Address":"上海静安区南京西路 1618号久光百货地下","Longitude":121.4527403628,"Latitude":31.2294230098},{"Name":"来福士店","Address":"上海市黄浦区西藏中路 来福士广场B1-01","Longitude":121.4827064136,"Latitude":31.2377975254},{"Name":"万达广场店","Address":"杨浦区凇沪路77号上海 万达广场地下一层","Longitude":121.5206370059,"Latitude":31.3068006075},{"Name":"上海宏伊广场店","Address":"南京东路 299号地下一层","Longitude":115.9449261641,"Latitude":28.6880178551},{"Name":"上海埔东正大","Address":"上海市陆家嘴西路 正大广场地下1层","Longitude":121.5071162765,"Latitude":31.2431416835},{"Name":"松江开元","Address":"上海市松江区新松江路 925弄一楼1141室,1142室","Longitude":121.2247433356,"Latitude":31.0448532217},{"Name":"上海龙之梦","Address":"上海市长宁区长宁路 1018号三楼","Longitude":121.4241945359,"Latitude":31.2248489824},{"Name":"美罗城店","Address":"上海徐汇区肇嘉浜路 1111号2楼","Longitude":121.4462125385,"Latitude":31.2003571643},{"Name":"阳光店","Address":"上海市南京东路 580号阳光百货1F","Longitude":121.4859948476,"Latitude":31.2414785655},{"Name":"凯特利广场店","Address":"青浦公园路 458号","Longitude":121.1240682494,"Latitude":31.1545487839},{"Name":"亚新生活广场店","Address":"上海市普陀区 长寿路401号","Longitude":121.4434162958,"Latitude":31.2460175253},{"Name":"宝山黄金广场店","Address":"上海市牡丹江路 黄金广场","Longitude":121.4891733725,"Latitude":31.4094527473},{"Name":"上海罗宾森店","Address":"嘉定城中路 162号首层","Longitude":121.252173781,"Latitude":31.3905979224},{"Name":"上海浦东96广场","Address":"上海浦东东方路796号一 层","Longitude":121.5303787313,"Latitude":31.2335831619},{"Name":"上海南京西路新世界店","Address":"上海市南京西路 2-68号","Longitude":121.4804986007,"Latitude":31.2404495595},{"Name":"上海文峰广场","Address":"浦东新区张杨北路 801号","Longitude":121.5937278883,"Latitude":31.2761289748},{"Name":"巴黎春天浦东店","Address":"浦东新区浦建路118号巴 黎春天百货地下一层","Longitude":121.5267627355,"Latitude":31.2136723007},{"Name":"上海浦东川沙现代","Address":"上海市川沙路 4825号","Longitude":121.7042902397,"Latitude":31.2010975975},{"Name":"巴黎春天店","Address":"上海市淮海中路 939地下1层","Longitude":31.2228748846,"Latitude":121.4659271967},{"Name":"淮海中路店","Address":"上海市卢湾区 淮海中路787号","Longitude":121.4699606967,"Latitude":31.2244607846},{"Name":"大宁商业广场","Address":"上海共和新路1988号 大宁商业广场1-2层","Longitude":121.4587347459,"Latitude":31.2861682074},{"Name":"天山商厦","Address":"上海市长宁区 天山路789号1层","Longitude":121.4100509816,"Latitude":31.2170584865},{"Name":"上海又一城店","Address":"杨浦区凇沪路8号地下 一层","Longitude":121.5220451303,"Latitude":31.3083485658},{"Name":"上海打浦店","Address":"上海市瑞金南路1号 首层A-3,02单元","Longitude":121.47373189,"Latitude":31.2098971431},{"Name":"西郊百联","Address":"上海市仙霞西路88号 西郊百联首层","Longitude":121.3761315476,"Latitude":31.2139950496},{"Name":"上海奉贤南","Address":"上海市奉贤区南桥镇 百齐路588号","Longitude":121.4920706135,"Latitude":30.9194871654},{"Name":"嘉里不夜城店","Address":"上海市闸北区天目西路 太平洋百货","Longitude":121.4635354439,"Latitude":31.2514773604},{"Name":"SH闵行七宝","Address":"上海闵行区漕宝路3457 号地下一层","Longitude":121.3569226577,"Latitude":31.162534617},{"Name":"柳州店","Address":"上海市柳州路515号 /","Longitude":121.4303496344,"Latitude":31.1779977579},{"Name":"南汇玉湖商厦","Address":"上海市南汇区惠南镇东 门大街200号首层001","Longitude":121.7666980984,"Latitude":31.0526381145},{"Name":"百联中环店","Address":"普陀区真光路1288号 首层","Longitude":121.3898882029,"Latitude":31.2529304687},{"Name":"SH虹口龙之梦","Address":"上海虹口区西江湾路388 号地下一层","Longitude":121.4836644644,"Latitude":31.2761649482},{"Name":"SH浦东龙阳路","Address":"上海浦东新区龙阳路 2000号102室","Longitude":121.5461338689,"Latitude":31.2037945386},{"Name":"上海21世纪运动城店","Address":"上海市虹口区四川北路 818号首层","Longitude":121.4919270337,"Latitude":31.2535919929},{"Name":"上海嘉定清河路店","Address":"上海市嘉定区清河路2 号1层","Longitude":121.258001362,"Latitude":31.391635131},{"Name":"七宝龙城店","Address":"上海市七莘路 3019号首层","Longitude":121.3542091577,"Latitude":31.161732717},{"Name":"SH崇明八一路","Address":"上海崇明县八一路206号 1层","Longitude":121.4025954038,"Latitude":31.6267757341},{"Name":"上海南站银泰","Address":"徐汇区沪闵路9001-3号 银泰购物中心北 1-C24","Longitude":121.4311961389,"Latitude":31.1596080009},{"Name":"SH巴春成山店","Address":"上海浦东新区成山路 1993号一楼","Longitude":121.5421601938,"Latitude":31.1852049082},{"Name":"SH闵行虹井路","Address":"上海闵行区虹井路288号 1楼","Longitude":121.3782373638,"Latitude":31.1820331836},{"Name":"上海定西路店","Address":"上海市定西路 1513号","Longitude":121.4280226359,"Latitude":31.2238671824},{"Name":"SH浦东上海湾","Address":"上海浦东新区浦东南路 1118号一层","Longitude":121.5226747313,"Latitude":31.2333661619},{"Name":"SH闵行莲花广场","Address":"上海闵行区泸闵路7866 弄1号一层","Longitude":121.4095850798,"Latitude":31.1388987628},{"Name":"SH闵行龙之梦","Address":"上海市闵行区泸闵路 6088号","Longitude":121.3842401646,"Latitude":31.1142420232},{"Name":"SH昌里浦东商场","Address":"上海浦东昌里路333 号一层","Longitude":121.4980276483,"Latitude":31.1794400269},{"Name":"上海南汇人民","Address":"上海市南汇区人民东路 2635弄97,99,101号","Longitude":121.7756438345,"Latitude":31.0547817174},{"Name":"虹口东宝兴路","Address":"上海虹口四川北路 1689号B1楼","Longitude":31.2637349574,"Latitude":31.2637349574},{"Name":"梅陇镇广场店","Address":"上海市南京路1038号梅 陇镇广场3楼","Longitude":121.4633057692,"Latitude":31.2350504016},{"Name":"上海飞洲国际","Address":"上海市零陵路899号 地下1层","Longitude":121.4439688042,"Latitude":31.1896338553},{"Name":"SH闵行仲盛广场","Address":"上海市都市路5001号 B1","Longitude":121.3942724694,"Latitude":31.1144449489},{"Name":"上海大华店","Address":"上海市大华路 538号101室","Longitude":121.4207118185,"Latitude":31.2785112863},{"Name":"SH黄浦方浜中路","Address":"上海黄浦区方浜中路270 到296号一楼","Longitude":121.4985395774,"Latitude":31.2308875995},{"Name":"赤峰路店","Address":"上海市轨道交通三号线 赤峰路站商铺二层","Longitude":121.4889875291,"Latitude":31.2876124865},{"Name":"汇民店","Address":"上海市天钥桥路 123号","Longitude":121.4482455385,"Latitude":31.1985141643},{"Name":"迪美店","Address":"上海市人民广场 迪美购物中心56号铺","Longitude":121.4819494136,"Latitude":31.2385895254},{"Name":"东泰广场","Address":"上海四川北路 2002弄1号首层","Longitude":121.4908171075,"Latitude":31.2699808282},{"Name":"SH浦东嘉里中心","Address":"上海浦东新区花木路 1378号地下一层","Longitude":121.5689126424,"Latitude":31.2190866491},{"Name":"上海瑞虹新城","Address":"上海市临平路123号一 二层","Longitude":121.5050919215,"Latitude":31.2663437468},{"Name":"上海米兰时尚广场店","Address":"上海市长宁路820号 地下1层","Longitude":121.4262656359,"Latitude":31.2251891824},{"Name":"SH金山百联","Address":"上海金山区卫青西路168 弄99号一层G47-F01-1-008","Longitude":121.355189797,"Latitude":30.736639346},{"Name":"SH安亭城市广场","Address":"上海嘉定墨玉南路1033 号一层109，110室","Longitude":121.1696384636,"Latitude":31.2930622026},{"Name":"大拇指广场","Address":"浦东区芳甸路199弄 29、30号","Longitude":121.5655960547,"Latitude":31.2332302925},{"Name":"安信置地广场","Address":"宝山区牡丹江路 1255号F区一层","Longitude":121.4947329622,"Latitude":31.401415972},{"Name":"SH松江中山中路","Address":"上海中山中路73-77号 地下一层","Longitude":121.2393676739,"Latitude":31.0142221677},{"Name":"SH宝山万达","Address":"上海宝山区一二八纪念 路988弄1号三楼","Longitude":121.4526020985,"Latitude":31.3294178075}]}]},{"Name":"四川","Cities":[{"Name":"成都","Stores":[{"Name":"成都上东大街店","Address":"成都市上东大街36号 成都港澳购物城首层","Longitude":104.0783340751,"Latitude":30.6613793297},{"Name":"嘉信茂广场","Address":"成都市金牛区 交大路183号凯德广场首","Longitude":104.0513602316,"Latitude":30.7080466443},{"Name":"春熙金开","Address":"成都市锦江区春熙路西 段16号负一层","Longitude":104.0824717415,"Latitude":30.6611739596},{"Name":"成都总府","Address":"成都市锦江区总府路18 号成都春熙商汇广场","Longitude":104.0842676965,"Latitude":30.6639564125},{"Name":"成都盐市口","Address":"成都市下西顺城街75号 一楼","Longitude":104.0776929391,"Latitude":30.6647369088},{"Name":"成都新世界","Address":"成都顺城街8号中环广 场新世界百货","Longitude":104.0779586751,"Latitude":30.6624281297},{"Name":"CD优品道","Address":"成都市青羊区青羊大道 99号附1号","Longitude":104.0137437453,"Latitude":30.670865612},{"Name":"成都沸城","Address":"成都市武侯区科华北路 SOHO-沸城首层","Longitude":104.0827288614,"Latitude":30.6296168573},{"Name":"成都SM城市广场","Address":"成都市成华区二环路东 二段29号","Longitude":104.1236508144,"Latitude":30.6774851596},{"Name":"成都晋阳","Address":"成都市武候区晋阳路千 盛百货购物广场269号","Longitude":104.0041206288,"Latitude":30.6536162686},{"Name":"CD成都锦华万达","Address":"四川省成都市锦华路 万达广场商业步行街二","Longitude":104.1012854925,"Latitude":30.6262033525},{"Name":"成都新城市广场","Address":"成都市青羊区西大街 新城市广场D栋1层","Longitude":104.0640504761,"Latitude":30.6800001515},{"Name":"XD新都桂湖摩尔","Address":"四川成都新都桂湖摩尔 百货","Longitude":104.1621533259,"Latitude":30.8294400876},{"Name":"CD站华路欧尚","Address":"成都市高新区站华路9 号附一、二号","Longitude":104.0671638864,"Latitude":30.610755634},{"Name":"CD凯丹广场","Address":"成都高新区盛和一路99 号负一层","Longitude":104.0691809075,"Latitude":30.6088718148},{"Name":"CD成都华达商城","Address":"武侯祠大街266号附4号 成都","Longitude":104.0558291205,"Latitude":30.6508085881},{"Name":"CD新都新城市","Address":"成都市新都区马超 东路266号","Longitude":104.1921084864,"Latitude":30.8139541198},{"Name":"CD金牛万达广场","Address":"成都市一环路北三段 1号1栋","Longitude":104.0800196042,"Latitude":30.6918297606},{"Name":"CD红牌楼","Address":"成都武侯区永丰乡佳灵 路红牌楼广场乐福负一","Longitude":104.0351296547,"Latitude":30.6386371252},{"Name":"成都玉林","Address":"成都市一环路南三段22 号世纪电脑城项目一层","Longitude":104.0679471415,"Latitude":30.6394006166}]},{"Name":"达州","Stores":[{"Name":"DZ中心广场","Address":"达州朝阳东路朝阳巷朝 凤路之间摩尔百盛1楼","Longitude":107.5102280839,"Latitude":31.2159740348}]},{"Name":"德阳","Stores":[{"Name":"DY洋洋百货","Address":"德阳市旌阳区凉山路 111号洋洋百货一楼","Longitude":104.3934331795,"Latitude":31.1299093371}]},{"Name":"绵阳","Stores":[{"Name":"绵阳嘉信茂","Address":"绵阳市涪城区临园路东 段74号","Longitude":104.7486716821,"Latitude":31.4695782328}]},{"Name":"攀枝花","Stores":[{"Name":"PZH摩尔百盛","Address":"四川省攀枝花市东区炳 草岗大街世贸中心大楼","Longitude":101.7107098056,"Latitude":26.5521944735}]},{"Name":"西昌","Stores":[{"Name":"XC劲浪体育店","Address":"四川西昌市长安东路 25号","Longitude":102.2690023575,"Latitude":27.8943088413}]},{"Name":"宜宾","Stores":[{"Name":"YB嘉茂广场","Address":"宜宾南岸酒都路中段 55号","Longitude":104.6497981353,"Latitude":28.758117635}]}]},{"Name":"天津","Cities":[{"Name":"天津","Stores":[{"Name":"天津欧乐","Address":"天津和平区滨江道300号 欧乐时尚广场首层","Longitude":117.2030020543,"Latitude":39.1271083326},{"Name":"天津金元宝店","Address":"天津市塘沽区解放路 668号地下1层","Longitude":117.6720640349,"Latitude":39.0240670209},{"Name":"TJ万达广场","Address":"天津市河东区津滨 大道57号首层","Longitude":117.2605643052,"Latitude":39.1298919035},{"Name":"国际商场","Address":"天津市和平区南京路 211号国际商场首层","Longitude":117.2011270177,"Latitude":39.1240709969},{"Name":"天津时代广场","Address":"天津市南开区鞍山西道 与南丰路交口东南側天","Longitude":117.1699767694,"Latitude":39.1197899961},{"Name":"TJ大悦城","Address":"天津市南开区南门外大 街2号","Longitude":117.1867490386,"Latitude":39.1410763032},{"Name":"新世界商场","Address":"天津市南开区东马路138 号新世界商场首层","Longitude":117.1966653737,"Latitude":39.1456883621},{"Name":"天津津汇店","Address":"天津市南京路189号 津汇广场地下1层","Longitude":117.2031270544,"Latitude":39.1233783326},{"Name":"TJ麦迪逊广场","Address":"天津市新产业园区华苑 产业区迎水道138号","Longitude":117.1372310379,"Latitude":39.0947149445},{"Name":"天津千百汇","Address":"天津开发区第3大街32号 鸿泰千百汇首层","Longitude":117.7129218042,"Latitude":39.0361838255}]}]},{"Name":"云南","Cities":[{"Name":"昆明","Stores":[{"Name":"世纪广场店","Address":"昆明市南屏街88号 世纪广场首层01号铺","Longitude":102.7180683768,"Latitude":25.0432163717},{"Name":"昆明正义坊","Address":"云南省昆明市五华区正 义路70号首层","Longitude":102.7157905768,"Latitude":25.0443693717},{"Name":"昆明东方广场","Address":"昆明市东寺街 东方广场首层商铺","Longitude":102.7159317686,"Latitude":25.0358537145},{"Name":"KM南亚风情店","Address":"云南省昆明市西山区滇 池路569号","Longitude":102.6905149521,"Latitude":25.0162280832},{"Name":"昆明顺城","Address":"昆明市崇仁街7号顺 城王府井购物中心一层","Longitude":102.7131095768,"Latitude":25.0417843717},{"Name":"KM青年路苏宁店","Address":"昆明市人民中路长春花 园商场2号地块第一层","Longitude":102.7213425768,"Latitude":25.0492313717},{"Name":"昆明中汇广场","Address":"昆明市盘龙区北京路 1127号","Longitude":102.7458469922,"Latitude":25.0984772688},{"Name":"龙泉家乐福","Address":"昆明市龙泉路35-37号 No. LQ-106&107&108&109","Longitude":102.7157482278,"Latitude":25.0735157549},{"Name":"KM正大广场店","Address":"昆明市高新技术产业开 发区新区R2-1-2","Longitude":102.6784833331,"Latitude":25.0733500957},{"Name":"小西门","Address":"昆明五华区人民中路富 春街98号美辰百货一层","Longitude":102.7093892649,"Latitude":25.049707584},{"Name":"昆明新世界","Address":"昆明市五华区青年路432 号新世界百货负一层","Longitude":102.7222718186,"Latitude":25.0438108181}]},{"Name":"曲靖","Stores":[{"Name":"QJ中天广场","Address":"云南省曲靖市麒麟区 麒麟南路","Longitude":103.8049611677,"Latitude":25.4990296217}]},{"Name":"玉溪","Stores":[{"Name":"昆明玉溪","Address":"玉溪市凤凰路 35号首层","Longitude":102.5474246536,"Latitude":24.3573074959}]}]},{"Name":"浙江","Cities":[{"Name":"杭州","Stores":[{"Name":"HZ福雷德广场","Address":"杭州下沙经济技术开发 区文泽路99号","Longitude":120.3545587384,"Latitude":30.3272908048},{"Name":"杭州利星百货","Address":"杭州市上城区 平海路124号1层","Longitude":120.1691053282,"Latitude":30.2603063759},{"Name":"杭州庆春","Address":"杭州市江干区景昙路 18-26号一层","Longitude":120.2112590712,"Latitude":30.2643907428},{"Name":"HZ下沙星尚城","Address":"杭州经济技术开发区白 杨街道4号大街505号一","Longitude":120.3547800118,"Latitude":30.311712992},{"Name":"杭州江干天城路","Address":"杭州市江干区天城路 86号一层","Longitude":120.2063833108,"Latitude":30.2930514626},{"Name":"杭州莱蒙店","Address":"浙江省杭州市余杭区临 平迎宾路6号","Longitude":120.3063944206,"Latitude":30.419935275},{"Name":"HZ西湖西城广场","Address":"杭州文二西路551号西城 广场地下一层","Longitude":120.1018563544,"Latitude":30.2873194168},{"Name":"HZ上城银泰西湖","Address":"杭州上城区延安路 98号-1地下一层","Longitude":120.1720202599,"Latitude":30.2497499053},{"Name":"萧山衣之家","Address":"杭州萧山北干街道恒隆 广场2\\3\\4\\5幢一层","Longitude":120.2694488214,"Latitude":30.1838395454},{"Name":"萧山皇龙国际","Address":"浙江杭州萧山区城厢街 道市心南路128号一层","Longitude":120.2738339998,"Latitude":30.1674377874},{"Name":"杭州黄龙","Address":"杭州曙光路126号 /","Longitude":120.1446855333,"Latitude":30.2709038181},{"Name":"杭州中都","Address":"杭州市上城区庆春路87- 1号1层","Longitude":120.1831291449,"Latitude":30.2634123497},{"Name":"HZ浙江大酒店","Address":"杭州下城区延安路595号 裙楼一层","Longitude":120.1687449467,"Latitude":30.2747714451},{"Name":"HZ西湖华星店","Address":"杭州西湖区文三路477号 一楼","Longitude":120.1311352834,"Latitude":30.2826575441}]},{"Name":"金华","Stores":[{"Name":"JH义乌银泰伊美","Address":"浙江义乌工人西路15号 银泰百货地下一层","Longitude":120.0812668087,"Latitude":29.3135356924},{"Name":"金华解放东路","Address":"浙江省金华市解放东路 银泰天地购物中心首层","Longitude":119.6602725123,"Latitude":29.1097318645}]},{"Name":"丽水","Stores":[{"Name":"丽水莲都中山路","Address":"丽水市中山街498号丽水 百货大楼地下一层","Longitude":119.9201599164,"Latitude":28.4563549988}]},{"Name":"宁波","Stores":[{"Name":"天一广场","Address":"宁波市天一广场 6号门童梦楼","Longitude":121.5612370159,"Latitude":29.878032823},{"Name":"余姚长发","Address":"余姚新建路长发商厦一 层","Longitude":121.1634205587,"Latitude":30.0559744171},{"Name":"宁波万达","Address":"宁波四明中路 999号","Longitude":121.5503854105,"Latitude":29.8308384205},{"Name":"NB慈溪银泰","Address":"宁波慈溪解放东街银泰 百货一楼","Longitude":121.2551140957,"Latitude":30.1762514227},{"Name":"宁波城隍庙商城","Address":"宁波县学街22号城隍庙 商城首层","Longitude":121.5563992159,"Latitude":29.873086823},{"Name":"NB北仑明州商厦","Address":"宁波北仑区新硬明州路 160号一层","Longitude":121.8449008986,"Latitude":29.9190749668}]},{"Name":"绍兴","Stores":[{"Name":"绍兴春天百货","Address":"绍兴市解放南路89号 春天百货","Longitude":120.5872307634,"Latitude":30.0012134297},{"Name":"诸暨雄风百货","Address":"浙江省诸暨市艮塔路28 号雄风百货广场首层","Longitude":120.2489873522,"Latitude":29.7259433793},{"Name":"绍兴华联","Address":"浙江省绍兴市解放北路 381号华联商厦首层","Longitude":120.58764361,"Latitude":30.0076309778}]},{"Name":"台州","Stores":[{"Name":"椒江锦江百货","Address":"浙江省台州市椒江区解 放南路251-254号","Longitude":121.4452252722,"Latitude":28.6823282444},{"Name":"TZ路桥东方华联","Address":"浙江台州路桥商城街216 号东方华联一层","Longitude":121.3799134692,"Latitude":28.5846333652},{"Name":"TZ温岭东城路","Address":"浙江台州温岭太平街道 东城路1号首层","Longitude":121.3745853826,"Latitude":28.3721983703}]},{"Name":"温州","Stores":[{"Name":"温州开泰","Address":"温州市人民东路1号 开太百货","Longitude":120.6756265145,"Latitude":28.0175792449},{"Name":"乐清时代广场","Address":"浙江温州乐清清远路221 号时代广场一层","Longitude":120.9755751374,"Latitude":28.116772474},{"Name":"WZ龙湾万达广场","Address":"温州龙湾区永中街道 永定路1188万达广场2楼","Longitude":120.8194730099,"Latitude":27.9249599257},{"Name":"WZ瑞安时代广场","Address":"浙江温州瑞安安阳街道 时代广场一层","Longitude":120.6681286779,"Latitude":27.7828095275},{"Name":"WZ鹿城时代广场","Address":"浙江温州鹿城区车站大 道288号时代广场二层","Longitude":120.6914541551,"Latitude":28.0046673755}]},{"Name":"舟山","Stores":[{"Name":"ZS定海人民路","Address":"浙江舟山定海人民中路 7号一层","Longitude":122.1139124849,"Latitude":30.0219153138}]}]},{"Name":"重庆","Cities":[{"Name":"重庆","Stores":[{"Name":"华宇广场","Address":"重庆市沙坝区小新街 29号华宇广场A座","Longitude":106.4684285389,"Latitude":29.5608087241},{"Name":"重庆新世界百货","Address":"渝北2村一支路6号 英利大厦首层","Longitude":106.5400750683,"Latitude":29.5789732324},{"Name":"南坪万达","Address":"重庆南岸区南坪珊瑚村 江南大道8号南坪万达","Longitude":106.5745150936,"Latitude":29.532908063},{"Name":"CQ现代广场","Address":"重庆市江北区建新北路 8号现代广场D区2层","Longitude":106.5391310981,"Latitude":29.5821387531},{"Name":"金港国际","Address":"重庆市渝北区胜利 路129号1F8-9","Longitude":106.6399051725,"Latitude":29.7204587136},{"Name":"重庆金台","Address":"重庆市南岸区南坪西路 23号金台大厦负1层","Longitude":106.5711856168,"Latitude":29.5342671558},{"Name":"北城天街购","Address":"重庆市江北区洋河路 北城天街广场","Longitude":106.5451058631,"Latitude":29.5917141122},{"Name":"重庆富安店","Address":"重庆市西郊路2号晋愉 城市彩园大厦首层","Longitude":106.5203734534,"Latitude":29.514268148},{"Name":"CQ永川中央大街","Address":"重庆市永川区渝西大道 中段","Longitude":105.9132634767,"Latitude":29.3575462969},{"Name":"重庆轻轨名店城","Address":"重庆渝中区邹容路 轻轨名店城负1楼18号","Longitude":106.5845251846,"Latitude":29.5628597627},{"Name":"大都会","Address":"重庆市渝中区邹容路68 号大都会商厦LG13A-15","Longitude":106.5849837846,"Latitude":29.5638560627},{"Name":"CQ大融城","Address":"重庆江北区观音桥步行 街8号附5号3-1至附5号3-3","Longitude":106.537856925,"Latitude":29.5791369004},{"Name":"CQ嘉茂购物中心","Address":"重庆市沙坪坝小龙坎新 街29号华宇广场1号B-4-5","Longitude":106.4736475498,"Latitude":29.5606156358},{"Name":"CQ煌华新纪元","Address":"重庆市沙坪坝区双巷子 路6号煌华新纪元首层","Longitude":106.468523094,"Latitude":29.5642659694}]}]}]}